[{
		"StationId" : 67,
		"Title" : "Allee de Serr - Abadie",
		"PubDate" : "2015-06-07T12:34:03",
		"Address" : "allee de Serr",
		"City" : "BORDEAUX",
		"Guid" : "113",
		"Point" : "44.8438 -0.55751",
		"Latitude" : 44.8438,
		"Longitude" : -0.55751,
		"AvailableSlots" : 7,
		"AvailableVehicules" : 11,
		"TotalSlots" : 18,
		"StationType" : "VLS",
		"Correspondance" : "Citeis 45",
		"HasPaymentTerminal" : false,
		"IsStationOnline" : false
	}, {
		"StationId" : 60,
		"Title" : "Allees de Chartres",
		"PubDate" : "2015-06-07T12:34:03",
		"Address" : "face au 1 allees de Chartres",
		"City" : "BORDEAUX",
		"Guid" : "72",
		"Point" : "44.8472 -0.57131",
		"Latitude" : 44.8472,
		"Longitude" : -0.57131,
		"AvailableSlots" : 18,
		"AvailableVehicules" : 2,
		"TotalSlots" : 20,
		"StationType" : "VLS",
		"Correspondance" : "B",
		"HasPaymentTerminal" : false,
		"IsStationOnline" : false
	}, {
		"StationId" : 112,
		"Title" : "Arts et Metiers",
		"PubDate" : "2015-06-07T12:34:03",
		"Address" : "av des Facultes, derriere la station Tram.",
		"City" : "TALENCE",
		"Guid" : "12",
		"Point" : "44.8059 -0.60232",
		"Latitude" : 44.8059,
		"Longitude" : -0.60232,
		"AvailableSlots" : 20,
		"AvailableVehicules" : 18,
		"TotalSlots" : 40,
		"StationType" : "VLS",
		"Correspondance" : "B/58/87/Corol 34/Lianes 8",
		"HasPaymentTerminal" : false,
		"IsStationOnline" : false
	}, {
		"StationId" : 138,
		"Title" : "Barbey",
		"PubDate" : "2015-06-07T12:34:03",
		"Address" : "9, 10 place Dormoy",
		"City" : "BORDEAUX",
		"Guid" : "127",
		"Point" : "44.8266 -0.56455",
		"Latitude" : 44.8266,
		"Longitude" : -0.56455,
		"AvailableSlots" : 18,
		"AvailableVehicules" : 0,
		"TotalSlots" : 18,
		"StationType" : "VLS",
		"Correspondance" : "Lianes 9/Lianes 15",
		"HasPaymentTerminal" : false,
		"IsStationOnline" : false
	}, {
		"StationId" : 129,
		"Title" : "Barriere de Begles",
		"PubDate" : "2015-06-07T12:34:03",
		"Address" : "parking du cinema Le Festival",
		"City" : "BEGLES",
		"Guid" : "15",
		"Point" : "44.8131 -0.5642",
		"Latitude" : 44.8131,
		"Longitude" : -0.5642,
		"AvailableSlots" : 15,
		"AvailableVehicules" : 1,
		"TotalSlots" : 17,
		"StationType" : "VLS",
		"Correspondance" : "Citeis 43/Lianes 15/Lianes 10/26",
		"HasPaymentTerminal" : false,
		"IsStationOnline" : false
	}, {
		"StationId" : 48,
		"Title" : "Barriere de Pessac",
		"PubDate" : "2015-06-07T12:34:03",
		"Address" : "54 boulevard George V",
		"City" : "BORDEAUX",
		"Guid" : "107",
		"Point" : "44.8258 -0.58975",
		"Latitude" : 44.8258,
		"Longitude" : -0.58975,
		"AvailableSlots" : 18,
		"AvailableVehicules" : 0,
		"TotalSlots" : 18,
		"StationType" : "VLS",
		"Correspondance" : "Lianes 9/Lianes 11/Lianes 4",
		"HasPaymentTerminal" : false,
		"IsStationOnline" : false
	}, {
		"StationId" : 130,
		"Title" : "Barriere de Toulouse",
		"PubDate" : "2015-06-07T12:34:03",
		"Address" : "face au 6 boulevard Albert 1er",
		"City" : "BORDEAUX",
		"Guid" : "127",
		"Point" : "44.8146 -0.57217",
		"Latitude" : 44.8146,
		"Longitude" : -0.57217,
		"AvailableSlots" : 15,
		"AvailableVehicules" : 4,
		"TotalSlots" : 19,
		"StationType" : "VLS",
		"Correspondance" : "26/Citeis 43/Lianes 10/20/58/Citeis 43/Lianes 5/Lianes 9",
		"HasPaymentTerminal" : false,
		"IsStationOnline" : false
	}, {
		"StationId" : 33,
		"Title" : "Barriere du Medoc",
		"PubDate" : "2015-06-07T12:34:03",
		"Address" : "Rue Durieu de Maisonneuve",
		"City" : "BORDEAUX",
		"Guid" : "55",
		"Point" : "44.8533 -0.591761",
		"Latitude" : 44.8533,
		"Longitude" : -0.591761,
		"AvailableSlots" : 17,
		"AvailableVehicules" : 1,
		"TotalSlots" : 18,
		"StationType" : "VLS",
		"Correspondance" : "56 exp/72/Lianes 5/Lianes 6/Lianes 9/29/703",
		"HasPaymentTerminal" : false,
		"IsStationOnline" : false
	}, {
		"StationId" : 109,
		"Title" : "Barriere St Genes",
		"PubDate" : "2015-06-07T12:34:03",
		"Address" : "276 cours de l'Argonne",
		"City" : "BORDEAUX",
		"Guid" : "123",
		"Point" : "44.8221 -0.58178",
		"Latitude" : 44.8221,
		"Longitude" : -0.58178,
		"AvailableSlots" : 8,
		"AvailableVehicules" : 27,
		"TotalSlots" : 36,
		"StationType" : "VLS",
		"Correspondance" : "B/Lianes 9/26",
		"HasPaymentTerminal" : false,
		"IsStationOnline" : false
	}, {
		"StationId" : 13,
		"Title" : "Barriere St Medard",
		"PubDate" : "2015-06-07T12:34:03",
		"Address" : "6 avenue Charles de Gaulle",
		"City" : "BORDEAUX",
		"Guid" : "46",
		"Point" : "44.8484 -0.5981",
		"Latitude" : 44.8484,
		"Longitude" : -0.5981,
		"AvailableSlots" : 15,
		"AvailableVehicules" : 5,
		"TotalSlots" : 20,
		"StationType" : "VLS",
		"Correspondance" : "83/Lianes 2/Lianes 3/Lianes 9",
		"HasPaymentTerminal" : false,
		"IsStationOnline" : false
	}, {
		"StationId" : 98,
		"Title" : "Bassins a flot",
		"PubDate" : "2015-06-07T12:34:03",
		"Address" : "83 quai de Bacalan",
		"City" : "BORDEAUX",
		"Guid" : "75",
		"Point" : "44.8601 -0.55447",
		"Latitude" : 44.8601,
		"Longitude" : -0.55447,
		"AvailableSlots" : 12,
		"AvailableVehicules" : 5,
		"TotalSlots" : 18,
		"StationType" : "VLS",
		"Correspondance" : "B/Corol 32",
		"HasPaymentTerminal" : false,
		"IsStationOnline" : false
	}, {
		"StationId" : 75,
		"Title" : "Begles Poste",
		"PubDate" : "2015-06-07T12:34:03",
		"Address" : "111 avenue Lucien Lerousseau",
		"City" : "BEGLES",
		"Guid" : "8",
		"Point" : "44.8077 -0.560024",
		"Latitude" : 44.8077,
		"Longitude" : -0.560024,
		"AvailableSlots" : 3,
		"AvailableVehicules" : 14,
		"TotalSlots" : 18,
		"StationType" : "VLS+",
		"Correspondance" : "Lianes 15/Citeis 43",
		"HasPaymentTerminal" : false,
		"IsStationOnline" : false
	}, {
		"StationId" : 46,
		"Title" : "Belcier",
		"PubDate" : "2015-06-07T12:34:03",
		"Address" : "face au 18 rue Eugene Delacroix",
		"City" : "BORDEAUX",
		"Guid" : "105",
		"Point" : "44.8234 -0.55198",
		"Latitude" : 44.8234,
		"Longitude" : -0.55198,
		"AvailableSlots" : 15,
		"AvailableVehicules" : 6,
		"TotalSlots" : 21,
		"StationType" : "VLS",
		"Correspondance" : "C/Lianes 11",
		"HasPaymentTerminal" : false,
		"IsStationOnline" : false
	}, {
		"StationId" : 148,
		"Title" : "Berges de Garonne",
		"PubDate" : "2015-06-07T12:34:03",
		"Address" : "Avenue du Docteur Schinazi",
		"City" : "BORDEAUX",
		"Guid" : "148",
		"Point" : "44.8854 -0.541466",
		"Latitude" : 44.8854,
		"Longitude" : -0.541466,
		"AvailableSlots" : 0,
		"AvailableVehicules" : 14,
		"TotalSlots" : 14,
		"StationType" : "VLS+",
		"Correspondance" : "B",
		"HasPaymentTerminal" : false,
		"IsStationOnline" : false
	}, {
		"StationId" : 145,
		"Title" : "Berges du Lac",
		"PubDate" : "2015-06-07T12:34:03",
		"Address" : "Cours de Quebec",
		"City" : "BORDEAUX",
		"Guid" : "143",
		"Point" : "44.879 -0.57057",
		"Latitude" : 44.879,
		"Longitude" : -0.57057,
		"AvailableSlots" : 3,
		"AvailableVehicules" : 14,
		"TotalSlots" : 17,
		"StationType" : "VLS+",
		"Correspondance" : "C",
		"HasPaymentTerminal" : false,
		"IsStationOnline" : false
	}, {
		"StationId" : 108,
		"Title" : "Bergonie",
		"PubDate" : "2015-06-07T12:34:03",
		"Address" : "rue Grateloup",
		"City" : "BORDEAUX",
		"Guid" : "122",
		"Point" : "44.8247 -0.57815",
		"Latitude" : 44.8247,
		"Longitude" : -0.57815,
		"AvailableSlots" : 7,
		"AvailableVehicules" : 9,
		"TotalSlots" : 16,
		"StationType" : "VLS",
		"Correspondance" : "B/26",
		"HasPaymentTerminal" : false,
		"IsStationOnline" : false
	}, {
		"StationId" : 27,
		"Title" : "Bordeaux II",
		"PubDate" : "2015-06-07T12:34:03",
		"Address" : "entree de l'universite Bordeaux II / Maternite Pellegrin",
		"City" : "BORDEAUX",
		"Guid" : "97",
		"Point" : "44.8265 -0.60184",
		"Latitude" : 44.8265,
		"Longitude" : -0.60184,
		"AvailableSlots" : 10,
		"AvailableVehicules" : 10,
		"TotalSlots" : 20,
		"StationType" : "VLS",
		"Correspondance" : "Citeis 41/Lianes 11/Lianes 8",
		"HasPaymentTerminal" : false,
		"IsStationOnline" : false
	}, {
		"StationId" : 78,
		"Title" : "Bougnard",
		"PubDate" : "2015-06-07T12:34:03",
		"Address" : "avenue Bougnard",
		"City" : "PESSAC",
		"Guid" : "18",
		"Point" : "44.7939 -0.6353",
		"Latitude" : 44.7939,
		"Longitude" : -0.6353,
		"AvailableSlots" : 2,
		"AvailableVehicules" : 18,
		"TotalSlots" : 20,
		"StationType" : "VLS+",
		"Correspondance" : "B/24/Corol 36/Flexo 54",
		"HasPaymentTerminal" : false,
		"IsStationOnline" : false
	}, {
		"StationId" : 142,
		"Title" : "Bourranville",
		"PubDate" : "2015-06-07T12:34:03",
		"Address" : "Face au 160 avenue de Verdun",
		"City" : "MERIGNAC",
		"Guid" : "127",
		"Point" : "44.8395 -0.629236",
		"Latitude" : 44.8395,
		"Longitude" : -0.629236,
		"AvailableSlots" : 10,
		"AvailableVehicules" : 10,
		"TotalSlots" : 20,
		"StationType" : "VLS",
		"Correspondance" : "Lianes 1",
		"HasPaymentTerminal" : false,
		"IsStationOnline" : false
	}, {
		"StationId" : 95,
		"Title" : "Bruges Hotel de Ville",
		"PubDate" : "2015-06-07T12:34:03",
		"Address" : "87 av. du General de Gaulle",
		"City" : "BRUGES",
		"Guid" : "39",
		"Point" : "44.8815 -0.61337",
		"Latitude" : 44.8815,
		"Longitude" : -0.61337,
		"AvailableSlots" : 5,
		"AvailableVehicules" : 11,
		"TotalSlots" : 16,
		"StationType" : "VLS+",
		"Correspondance" : "29/56 exp/Corol 35/Lianes 6",
		"HasPaymentTerminal" : false,
		"IsStationOnline" : false
	}, {
		"StationId" : 70,
		"Title" : "Buttiniere",
		"PubDate" : "2015-06-07T12:34:03",
		"Address" : "pole d'echanges Buttiniere",
		"City" : "LORMONT",
		"Guid" : "3",
		"Point" : "44.8643 -0.5242",
		"Latitude" : 44.8643,
		"Longitude" : -0.5242,
		"AvailableSlots" : 3,
		"AvailableVehicules" : 17,
		"TotalSlots" : 20,
		"StationType" : "VLS+",
		"Correspondance" : "A/27/64/67/Corol 32/Citeis 40/Flexo 68/Resago Artigues",
		"HasPaymentTerminal" : false,
		"IsStationOnline" : false
	}, {
		"StationId" : 55,
		"Title" : "Camille Godard",
		"PubDate" : "2015-06-07T12:34:03",
		"Address" : "35 cours Evrard de Fayolle",
		"City" : "BORDEAUX",
		"Guid" : "67",
		"Point" : "44.8546 -0.57435",
		"Latitude" : 44.8546,
		"Longitude" : -0.57435,
		"AvailableSlots" : 9,
		"AvailableVehicules" : 6,
		"TotalSlots" : 16,
		"StationType" : "VLS",
		"Correspondance" : "C/Lianes 15/72",
		"HasPaymentTerminal" : false,
		"IsStationOnline" : false
	}, {
		"StationId" : 42,
		"Title" : "Camille Jullian",
		"PubDate" : "2015-06-07T12:34:03",
		"Address" : "31, 33 rue du Pas St Georges",
		"City" : "BORDEAUX",
		"Guid" : "101",
		"Point" : "44.8392 -0.57203",
		"Latitude" : 44.8392,
		"Longitude" : -0.57203,
		"AvailableSlots" : 13,
		"AvailableVehicules" : 6,
		"TotalSlots" : 20,
		"StationType" : "VLS",
		"Correspondance" : "Citeis 47",
		"HasPaymentTerminal" : false,
		"IsStationOnline" : false
	}, {
		"StationId" : 159,
		"Title" : "Camping International",
		"PubDate" : "2015-06-07T12:34:03",
		"Address" : "Boulevard Jacques Chaban Delmas",
		"City" : "BRUGES",
		"Guid" : "151",
		"Point" : "44.8978 -0.582511",
		"Latitude" : 44.8978,
		"Longitude" : -0.582511,
		"AvailableSlots" : 5,
		"AvailableVehicules" : 19,
		"TotalSlots" : 24,
		"StationType" : "VLS+",
		"Correspondance" : "73/Flexo 57 Resa",
		"HasPaymentTerminal" : false,
		"IsStationOnline" : false
	}, {
		"StationId" : 59,
		"Title" : "CAPC",
		"PubDate" : "2015-06-07T12:34:03",
		"Address" : "17 quai des Chartrons",
		"City" : "BORDEAUX",
		"Guid" : "71",
		"Point" : "44.8498 -0.57024",
		"Latitude" : 44.8498,
		"Longitude" : -0.57024,
		"AvailableSlots" : 11,
		"AvailableVehicules" : 7,
		"TotalSlots" : 18,
		"StationType" : "VLS",
		"Correspondance" : "B",
		"HasPaymentTerminal" : false,
		"IsStationOnline" : false
	}, {
		"StationId" : 133,
		"Title" : "Capucins",
		"PubDate" : "2015-06-07T12:34:03",
		"Address" : "30 place des Capucins",
		"City" : "BORDEAUX",
		"Guid" : "127",
		"Point" : "44.8299 -0.56812",
		"Latitude" : 44.8299,
		"Longitude" : -0.56812,
		"AvailableSlots" : 20,
		"AvailableVehicules" : 0,
		"TotalSlots" : 20,
		"StationType" : "VLS",
		"Correspondance" : "58/Citeis 43/Citeis 45/Lianes 10 (special Train)/Lianes 11/Lianes 15/Lianes 16",
		"HasPaymentTerminal" : false,
		"IsStationOnline" : false
	}, {
		"StationId" : 31,
		"Title" : "Cauderan",
		"PubDate" : "2015-06-07T12:34:03",
		"Address" : "face au 7 rue de l'eglise",
		"City" : "BORDEAUX",
		"Guid" : "53",
		"Point" : "44.8517 -0.61438",
		"Latitude" : 44.8517,
		"Longitude" : -0.61438,
		"AvailableSlots" : 12,
		"AvailableVehicules" : 4,
		"TotalSlots" : 16,
		"StationType" : "VLS+",
		"Correspondance" : "Citeis 41/Corol 33/Lianes 2",
		"HasPaymentTerminal" : false,
		"IsStationOnline" : false
	}, {
		"StationId" : 62,
		"Title" : "Cenon Gare",
		"PubDate" : "2015-06-07T12:34:03",
		"Address" : "avenue Jean Jaures",
		"City" : "CENON",
		"Guid" : "1",
		"Point" : "44.8561 -0.53364",
		"Latitude" : 44.8561,
		"Longitude" : -0.53364,
		"AvailableSlots" : 10,
		"AvailableVehicules" : 8,
		"TotalSlots" : 18,
		"StationType" : "VLS+",
		"Correspondance" : "TER/A/27/Citeis 40/Flexo 51",
		"HasPaymentTerminal" : false,
		"IsStationOnline" : false
	}, {
		"StationId" : 140,
		"Title" : "Charles Perrens",
		"PubDate" : "2015-06-07T12:34:03",
		"Address" : "120 rue de la Bechade",
		"City" : "BORDEAUX",
		"Guid" : "146",
		"Point" : "44.8234 -0.60067",
		"Latitude" : 44.8234,
		"Longitude" : -0.60067,
		"AvailableSlots" : 4,
		"AvailableVehicules" : 15,
		"TotalSlots" : 20,
		"StationType" : "VLS",
		"Correspondance" : "24/Citeis 41/Lianes 8",
		"HasPaymentTerminal" : false,
		"IsStationOnline" : false
	}, {
		"StationId" : 58,
		"Title" : "Chartrons",
		"PubDate" : "2015-06-07T12:34:03",
		"Address" : "face au 73 quai des Chartrons",
		"City" : "BORDEAUX",
		"Guid" : "70",
		"Point" : "44.8532 -0.56727",
		"Latitude" : 44.8532,
		"Longitude" : -0.56727,
		"AvailableSlots" : 3,
		"AvailableVehicules" : 15,
		"TotalSlots" : 18,
		"StationType" : "VLS",
		"Correspondance" : "B",
		"HasPaymentTerminal" : false,
		"IsStationOnline" : false
	}, {
		"StationId" : 11,
		"Title" : "Cite Administrative",
		"PubDate" : "2015-06-07T12:34:03",
		"Address" : "face au 108 boulevard du Pdt Wilson",
		"City" : "BORDEAUX",
		"Guid" : "44",
		"Point" : "44.8417 -0.5997",
		"Latitude" : 44.8417,
		"Longitude" : -0.5997,
		"AvailableSlots" : 7,
		"AvailableVehicules" : 13,
		"TotalSlots" : 20,
		"StationType" : "VLS",
		"Correspondance" : "Lianes 1/Lianes 9/Lianes 16/Specifique 74/",
		"HasPaymentTerminal" : false,
		"IsStationOnline" : false
	}, {
		"StationId" : 97,
		"Title" : "Claveau",
		"PubDate" : "2015-06-07T12:34:03",
		"Address" : "101 rue Joseph Brunet",
		"City" : "BORDEAUX",
		"Guid" : "74",
		"Point" : "44.8774 -0.54433",
		"Latitude" : 44.8774,
		"Longitude" : -0.54433,
		"AvailableSlots" : 0,
		"AvailableVehicules" : 18,
		"TotalSlots" : 20,
		"StationType" : "VLS+",
		"Correspondance" : "B/76",
		"HasPaymentTerminal" : false,
		"IsStationOnline" : false
	}, {
		"StationId" : 114,
		"Title" : "Compostelle",
		"PubDate" : "2015-06-07T12:34:03",
		"Address" : "angle rue de Compostelle / cours de la Liberation",
		"City" : "GRADIGNAN",
		"Guid" : "24",
		"Point" : "44.7931 -0.60547",
		"Latitude" : 44.7931,
		"Longitude" : -0.60547,
		"AvailableSlots" : 4,
		"AvailableVehicules" : 23,
		"TotalSlots" : 27,
		"StationType" : "VLS",
		"Correspondance" : "21/505",
		"HasPaymentTerminal" : false,
		"IsStationOnline" : false
	}, {
		"StationId" : 125,
		"Title" : "Conservatoire",
		"PubDate" : "2015-06-07T12:34:03",
		"Address" : "quai Ste Croix, devant le conservatoire",
		"City" : "BORDEAUX",
		"Guid" : "126",
		"Point" : "44.8318 -0.55966",
		"Latitude" : 44.8318,
		"Longitude" : -0.55966,
		"AvailableSlots" : 16,
		"AvailableVehicules" : 1,
		"TotalSlots" : 20,
		"StationType" : "VLS",
		"Correspondance" : "C/58/Citeis 45/Lianes 10",
		"HasPaymentTerminal" : false,
		"IsStationOnline" : false
	}, {
		"StationId" : 132,
		"Title" : "Cours de la Somme",
		"PubDate" : "2015-06-07T12:34:03",
		"Address" : "118 cours de la Somme",
		"City" : "BORDEAUX",
		"Guid" : "127",
		"Point" : "44.8263 -0.57248",
		"Latitude" : 44.8263,
		"Longitude" : -0.57248,
		"AvailableSlots" : 9,
		"AvailableVehicules" : 5,
		"TotalSlots" : 14,
		"StationType" : "VLS",
		"Correspondance" : "20/58/Lianes 10 (special Train)/Lianes 5",
		"HasPaymentTerminal" : false,
		"IsStationOnline" : false
	}, {
		"StationId" : 100,
		"Title" : "Cours du Medoc",
		"PubDate" : "2015-06-07T12:34:03",
		"Address" : "face au 119 quai des Chartrons",
		"City" : "BORDEAUX",
		"Guid" : "77",
		"Point" : "44.8556 -0.56319",
		"Latitude" : 44.8556,
		"Longitude" : -0.56319,
		"AvailableSlots" : 2,
		"AvailableVehicules" : 18,
		"TotalSlots" : 20,
		"StationType" : "VLS",
		"Correspondance" : "B/Citeis 46",
		"HasPaymentTerminal" : false,
		"IsStationOnline" : false
	}, {
		"StationId" : 69,
		"Title" : "Cours Le Rouzic",
		"PubDate" : "2015-06-07T12:34:03",
		"Address" : "5 place Calixte Camelle",
		"City" : "BORDEAUX",
		"Guid" : "115",
		"Point" : "44.843 -0.55036",
		"Latitude" : 44.843,
		"Longitude" : -0.55036,
		"AvailableSlots" : 0,
		"AvailableVehicules" : 14,
		"TotalSlots" : 14,
		"StationType" : "VLS",
		"Correspondance" : "Citeis 45",
		"HasPaymentTerminal" : false,
		"IsStationOnline" : false
	}, {
		"StationId" : 122,
		"Title" : "Cours St Louis Medoc",
		"PubDate" : "2015-06-07T12:34:03",
		"Address" : "77 cours Saint Louis",
		"City" : "BORDEAUX",
		"Guid" : "82",
		"Point" : "44.8585 -0.56966",
		"Latitude" : 44.8585,
		"Longitude" : -0.56966,
		"AvailableSlots" : 8,
		"AvailableVehicules" : 8,
		"TotalSlots" : 16,
		"StationType" : "VLS",
		"Correspondance" : "Lianes 4/Citeis 46",
		"HasPaymentTerminal" : false,
		"IsStationOnline" : false
	}, {
		"StationId" : 115,
		"Title" : "CREPS",
		"PubDate" : "2015-06-07T12:34:03",
		"Address" : "1 avenue de l'Universite",
		"City" : "TALENCE",
		"Guid" : "14",
		"Point" : "44.8009 -0.59651",
		"Latitude" : 44.8009,
		"Longitude" : -0.59651,
		"AvailableSlots" : 24,
		"AvailableVehicules" : 8,
		"TotalSlots" : 32,
		"StationType" : "VLS",
		"Correspondance" : "21/58/87/Corol 34/Corol 35/Lianes 8/Lianes 10",
		"HasPaymentTerminal" : false,
		"IsStationOnline" : false
	}, {
		"StationId" : 117,
		"Title" : "Doyen Brus",
		"PubDate" : "2015-06-07T12:34:03",
		"Address" : "rond-point avenue des Facultes",
		"City" : "PESSAC",
		"Guid" : "25",
		"Point" : "44.8004 -0.60986",
		"Latitude" : 44.8004,
		"Longitude" : -0.60986,
		"AvailableSlots" : 15,
		"AvailableVehicules" : 4,
		"TotalSlots" : 20,
		"StationType" : "VLS",
		"Correspondance" : "B",
		"HasPaymentTerminal" : false,
		"IsStationOnline" : false
	}, {
		"StationId" : 151,
		"Title" : "Dravemont",
		"PubDate" : "2015-06-07T12:34:03",
		"Address" : "Avenue Salvador Allende",
		"City" : "FLOIRAC",
		"Guid" : "127",
		"Point" : "44.8456 -0.510532",
		"Latitude" : 44.8456,
		"Longitude" : -0.510532,
		"AvailableSlots" : 12,
		"AvailableVehicules" : 8,
		"TotalSlots" : 20,
		"StationType" : "VLS+",
		"Correspondance" : "A/28/Corol 32/Flexo 52/80",
		"HasPaymentTerminal" : false,
		"IsStationOnline" : false
	}, {
		"StationId" : 14,
		"Title" : "Dubreuil / Turenne",
		"PubDate" : "2015-06-07T12:34:03",
		"Address" : "75, rue de Lyon",
		"City" : "BORDEAUX",
		"Guid" : "47",
		"Point" : "44.8482 -0.59197",
		"Latitude" : 44.8482,
		"Longitude" : -0.59197,
		"AvailableSlots" : 8,
		"AvailableVehicules" : 5,
		"TotalSlots" : 14,
		"StationType" : "VLS",
		"Correspondance" : "83/Lianes 2/Lianes 3/Specifique 74",
		"HasPaymentTerminal" : false,
		"IsStationOnline" : false
	}, {
		"StationId" : 113,
		"Title" : "Ecole de Management",
		"PubDate" : "2015-06-07T12:34:03",
		"Address" : "cours de la Liberation, devant BEM",
		"City" : "TALENCE",
		"Guid" : "13",
		"Point" : "44.7969 -0.60187",
		"Latitude" : 44.7969,
		"Longitude" : -0.60187,
		"AvailableSlots" : 4,
		"AvailableVehicules" : 16,
		"TotalSlots" : 20,
		"StationType" : "VLS",
		"Correspondance" : "21/Corol 35/Lianes 10/505",
		"HasPaymentTerminal" : false,
		"IsStationOnline" : false
	}, {
		"StationId" : 160,
		"Title" : "Eglise St Aubin",
		"PubDate" : "2015-06-07T12:34:03",
		"Address" : "Route de Saint-Medard",
		"City" : "SAINT-AUBIN-DE-MEDOC",
		"Guid" : "154",
		"Point" : "44.912 -0.724596",
		"Latitude" : 44.912,
		"Longitude" : -0.724596,
		"AvailableSlots" : 3,
		"AvailableVehicules" : 7,
		"TotalSlots" : 10,
		"StationType" : "VLS+",
		"Correspondance" : "83/Flexo 55 Resa/Lianes 3",
		"HasPaymentTerminal" : false,
		"IsStationOnline" : false
	}, {
		"StationId" : 57,
		"Title" : "Eglise St Louis",
		"PubDate" : "2015-06-07T12:34:03",
		"Address" : "face au 9 rue Sicard",
		"City" : "BORDEAUX",
		"Guid" : "69",
		"Point" : "44.8516 -0.57163",
		"Latitude" : 44.8516,
		"Longitude" : -0.57163,
		"AvailableSlots" : 14,
		"AvailableVehicules" : 2,
		"TotalSlots" : 16,
		"StationType" : "VLS",
		"Correspondance" : "C/Lianes 15/Lianes 4",
		"HasPaymentTerminal" : false,
		"IsStationOnline" : false
	}, {
		"StationId" : 136,
		"Title" : "Eglise Ste Croix",
		"PubDate" : "2015-06-07T12:34:03",
		"Address" : "place Pierre Renaudel",
		"City" : "BORDEAUX",
		"Guid" : "127",
		"Point" : "44.8313 -0.56139",
		"Latitude" : 44.8313,
		"Longitude" : -0.56139,
		"AvailableSlots" : 17,
		"AvailableVehicules" : 1,
		"TotalSlots" : 18,
		"StationType" : "VLS",
		"Correspondance" : "C/58/Citeis 45/Lianes 10",
		"HasPaymentTerminal" : false,
		"IsStationOnline" : false
	}, {
		"StationId" : 93,
		"Title" : "Eysines Centre",
		"PubDate" : "2015-06-07T12:34:03",
		"Address" : "3 avenue de Picot",
		"City" : "EYSINES",
		"Guid" : "36",
		"Point" : "44.884 -0.64992",
		"Latitude" : 44.884,
		"Longitude" : -0.64992,
		"AvailableSlots" : 5,
		"AvailableVehicules" : 11,
		"TotalSlots" : 16,
		"StationType" : "VLS+",
		"Correspondance" : "72/Lianes 2/Lianes 5/Specifique 78/Specifique 79",
		"HasPaymentTerminal" : false,
		"IsStationOnline" : false
	}, {
		"StationId" : 150,
		"Title" : "Feydeau",
		"PubDate" : "2015-06-07T12:34:03",
		"Address" : "22 Boulevard Feydeau",
		"City" : "ARTIGUES-PRES-BORDEAUX",
		"Guid" : "152",
		"Point" : "44.8493 -0.496694",
		"Latitude" : 44.8493,
		"Longitude" : -0.496694,
		"AvailableSlots" : 5,
		"AvailableVehicules" : 14,
		"TotalSlots" : 19,
		"StationType" : "VLS+",
		"Correspondance" : "27/Flexo 51 Resa",
		"HasPaymentTerminal" : false,
		"IsStationOnline" : false
	}, {
		"StationId" : 90,
		"Title" : "Fontaine d'Arlac",
		"PubDate" : "2015-06-07T12:34:03",
		"Address" : "avenue Francois Mitterrand, devant le P+R",
		"City" : "MERIGNAC",
		"Guid" : "33",
		"Point" : "44.8265 -0.62577",
		"Latitude" : 44.8265,
		"Longitude" : -0.62577,
		"AvailableSlots" : 14,
		"AvailableVehicules" : 4,
		"TotalSlots" : 18,
		"StationType" : "VLS+",
		"Correspondance" : "A/Citeis 42/23/Flexo 54",
		"HasPaymentTerminal" : false,
		"IsStationOnline" : false
	}, {
		"StationId" : 110,
		"Title" : "Forum",
		"PubDate" : "2015-06-07T12:34:03",
		"Address" : "angle allee du 7eme Art / cours de la Liberation",
		"City" : "TALENCE",
		"Guid" : "10",
		"Point" : "44.8124 -0.59103",
		"Latitude" : 44.8124,
		"Longitude" : -0.59103,
		"AvailableSlots" : 12,
		"AvailableVehicules" : 29,
		"TotalSlots" : 41,
		"StationType" : "VLS",
		"Correspondance" : "B/20",
		"HasPaymentTerminal" : false,
		"IsStationOnline" : false
	}, {
		"StationId" : 165,
		"Title" : "France Alouette",
		"PubDate" : "2015-06-07T12:34:03",
		"Address" : "avenue du Haut Leveque",
		"City" : "PESSAC",
		"Guid" : "166",
		"Point" : "44.7983 -0.663053",
		"Latitude" : 44.7983,
		"Longitude" : -0.663053,
		"AvailableSlots" : 11,
		"AvailableVehicules" : 9,
		"TotalSlots" : 20,
		"StationType" : "VLS+",
		"Correspondance" : "B/Lianes 4/Corol 36/Citeis 44",
		"HasPaymentTerminal" : false,
		"IsStationOnline" : false
	}, {
		"StationId" : 63,
		"Title" : "Francois Mitterrand",
		"PubDate" : "2015-06-07T12:34:03",
		"Address" : "face au 10 av du Pdt F. Mitterrand",
		"City" : "FLOIRAC",
		"Guid" : "2",
		"Point" : "44.8303 -0.52697",
		"Latitude" : 44.8303,
		"Longitude" : -0.52697,
		"AvailableSlots" : 7,
		"AvailableVehicules" : 11,
		"TotalSlots" : 18,
		"StationType" : "VLS+",
		"Correspondance" : "Lianes 10/28/Corol 32/Flexo 52",
		"HasPaymentTerminal" : false,
		"IsStationOnline" : false
	}, {
		"StationId" : 16,
		"Title" : "Galin",
		"PubDate" : "2015-06-07T12:34:03",
		"Address" : "avenue Thiers, face au Parc Relais",
		"City" : "BORDEAUX",
		"Guid" : "90",
		"Point" : "44.8495 -0.54525",
		"Latitude" : 44.8495,
		"Longitude" : -0.54525,
		"AvailableSlots" : 3,
		"AvailableVehicules" : 15,
		"TotalSlots" : 18,
		"StationType" : "VLS",
		"Correspondance" : "A/28/Flexo 51/Flexo 52/Lianes 10",
		"HasPaymentTerminal" : false,
		"IsStationOnline" : false
	}, {
		"StationId" : 66,
		"Title" : "Gare d'Orleans",
		"PubDate" : "2015-06-07T12:34:03",
		"Address" : "quai de Queyries, face a la Gare d'Orleans",
		"City" : "BORDEAUX",
		"Guid" : "112",
		"Point" : "44.8411 -0.56224",
		"Latitude" : 44.8411,
		"Longitude" : -0.56224,
		"AvailableSlots" : 1,
		"AvailableVehicules" : 19,
		"TotalSlots" : 20,
		"StationType" : "VLS",
		"Correspondance" : "91/92/Citeis 45/Flexo 50",
		"HasPaymentTerminal" : false,
		"IsStationOnline" : false
	}, {
		"StationId" : 162,
		"Title" : "Gare de Begles",
		"PubDate" : "2015-06-07T12:34:03",
		"Address" : "avenue Lenine",
		"City" : "BEGLES",
		"Guid" : "163",
		"Point" : "44.7982 -0.551517",
		"Latitude" : 44.7982,
		"Longitude" : -0.551517,
		"AvailableSlots" : 2,
		"AvailableVehicules" : 18,
		"TotalSlots" : 20,
		"StationType" : "VLS+",
		"Correspondance" : "C/Corol 34/Citeis 43",
		"HasPaymentTerminal" : false,
		"IsStationOnline" : false
	}, {
		"StationId" : 94,
		"Title" : "Gare de Blanquefort",
		"PubDate" : "2015-06-07T12:34:03",
		"Address" : "rue de la gare",
		"City" : "BLANQUEFORT",
		"Guid" : "38",
		"Point" : "44.9173 -0.62382",
		"Latitude" : 44.9173,
		"Longitude" : -0.62382,
		"AvailableSlots" : 0,
		"AvailableVehicules" : 0,
		"TotalSlots" : 18,
		"StationType" : "VLS+",
		"Correspondance" : "TER/84/29/704",
		"HasPaymentTerminal" : false,
		"IsStationOnline" : false
	}, {
		"StationId" : 80,
		"Title" : "Gare Pessac Alouette",
		"PubDate" : "2015-06-07T12:34:03",
		"Address" : "rue Martin Luther King",
		"City" : "PESSAC",
		"Guid" : "20",
		"Point" : "44.7932 -0.657632",
		"Latitude" : 44.7932,
		"Longitude" : -0.657632,
		"AvailableSlots" : 10,
		"AvailableVehicules" : 8,
		"TotalSlots" : 18,
		"StationType" : "VLS+",
		"Correspondance" : "TER",
		"HasPaymentTerminal" : false,
		"IsStationOnline" : false
	}, {
		"StationId" : 127,
		"Title" : "Gare St Jean",
		"PubDate" : "2015-06-07T12:34:03",
		"Address" : "rue St Vincent de Paul (terminus bus)",
		"City" : "BORDEAUX",
		"Guid" : "127",
		"Point" : "44.8263 -0.55707",
		"Latitude" : 44.8263,
		"Longitude" : -0.55707,
		"AvailableSlots" : 4,
		"AvailableVehicules" : 17,
		"TotalSlots" : 22,
		"StationType" : "VLS",
		"Correspondance" : "TER/C/Lianes 9/Lianes 10/Lianes 11/Lianes 16",
		"HasPaymentTerminal" : false,
		"IsStationOnline" : false
	}, {
		"StationId" : 9,
		"Title" : "Gavinies",
		"PubDate" : "2015-06-07T12:34:03",
		"Address" : "206 rue d'Ornano",
		"City" : "BORDEAUX",
		"Guid" : "88",
		"Point" : "44.833 -0.59289",
		"Latitude" : 44.833,
		"Longitude" : -0.59289,
		"AvailableSlots" : 10,
		"AvailableVehicules" : 9,
		"TotalSlots" : 20,
		"StationType" : "VLS",
		"Correspondance" : "A",
		"HasPaymentTerminal" : false,
		"IsStationOnline" : false
	}, {
		"StationId" : 12,
		"Title" : "Grand Lebrun",
		"PubDate" : "2015-06-07T12:34:03",
		"Address" : "24 avenue Louis Barthou",
		"City" : "BORDEAUX",
		"Guid" : "45",
		"Point" : "44.8512 -0.60861",
		"Latitude" : 44.8512,
		"Longitude" : -0.60861,
		"AvailableSlots" : 5,
		"AvailableVehicules" : 11,
		"TotalSlots" : 16,
		"StationType" : "VLS",
		"Correspondance" : "Lianes 2",
		"HasPaymentTerminal" : false,
		"IsStationOnline" : false
	}, {
		"StationId" : 40,
		"Title" : "Grand Theatre",
		"PubDate" : "2015-06-07T12:34:03",
		"Address" : "rue Esprit des Lois",
		"City" : "BORDEAUX",
		"Guid" : "62",
		"Point" : "44.8429 -0.5739",
		"Latitude" : 44.8429,
		"Longitude" : -0.5739,
		"AvailableSlots" : 16,
		"AvailableVehicules" : 4,
		"TotalSlots" : 20,
		"StationType" : "VLS",
		"Correspondance" : "B/Citeis 47",
		"HasPaymentTerminal" : false,
		"IsStationOnline" : false
	}, {
		"StationId" : 20,
		"Title" : "Grands Hommes",
		"PubDate" : "2015-06-07T12:34:03",
		"Address" : "face au 1 place des Grands Hommes",
		"City" : "BORDEAUX",
		"Guid" : "52",
		"Point" : "44.8431 -0.57724",
		"Latitude" : 44.8431,
		"Longitude" : -0.57724,
		"AvailableSlots" : 20,
		"AvailableVehicules" : 0,
		"TotalSlots" : 20,
		"StationType" : "VLS",
		"Correspondance" : "B/Citeis 47",
		"HasPaymentTerminal" : false,
		"IsStationOnline" : false
	}, {
		"StationId" : 104,
		"Title" : "Grosse Cloche",
		"PubDate" : "2015-06-07T12:34:03",
		"Address" : "12 place de la Ferme de Richemont",
		"City" : "BORDEAUX",
		"Guid" : "118",
		"Point" : "44.8352 -0.57205",
		"Latitude" : 44.8352,
		"Longitude" : -0.57205,
		"AvailableSlots" : 0,
		"AvailableVehicules" : 17,
		"TotalSlots" : 17,
		"StationType" : "VLS",
		"Correspondance" : "24/Citeis 45/citeis 47",
		"HasPaymentTerminal" : false,
		"IsStationOnline" : false
	}, {
		"StationId" : 164,
		"Title" : "Hopital Haut Leveque",
		"PubDate" : "2015-06-07T12:34:03",
		"Address" : "avenue du Haut Leveque",
		"City" : "PESSAC",
		"Guid" : "165",
		"Point" : "44.7875 -0.655167",
		"Latitude" : 44.7875,
		"Longitude" : -0.655167,
		"AvailableSlots" : 14,
		"AvailableVehicules" : 1,
		"TotalSlots" : 15,
		"StationType" : "VLS+",
		"Correspondance" : "B/24/Corol 36/Citeis 44",
		"HasPaymentTerminal" : false,
		"IsStationOnline" : false
	}, {
		"StationId" : 22,
		"Title" : "Hotel de Ville",
		"PubDate" : "2015-06-07T12:34:03",
		"Address" : "Place Pey Berland (tremie de sortie du parking)",
		"City" : "BORDEAUX",
		"Guid" : "92",
		"Point" : "44.8383 -0.57648",
		"Latitude" : 44.8383,
		"Longitude" : -0.57648,
		"AvailableSlots" : 30,
		"AvailableVehicules" : 3,
		"TotalSlots" : 33,
		"StationType" : "VLS",
		"Correspondance" : "A/B",
		"HasPaymentTerminal" : false,
		"IsStationOnline" : false
	}, {
		"StationId" : 156,
		"Title" : "Hotel de Ville Merignac",
		"PubDate" : "2015-06-07T12:34:03",
		"Address" : "39 rue Maurice Utrillo",
		"City" : "MERIGNAC",
		"Guid" : "160",
		"Point" : "44.8441 -0.658343",
		"Latitude" : 44.8441,
		"Longitude" : -0.658343,
		"AvailableSlots" : 8,
		"AvailableVehicules" : 12,
		"TotalSlots" : 20,
		"StationType" : "VLS",
		"Correspondance" : "A",
		"HasPaymentTerminal" : false,
		"IsStationOnline" : false
	}, {
		"StationId" : 18,
		"Title" : "Huguerie",
		"PubDate" : "2015-06-07T12:34:03",
		"Address" : "78 rue du Palais Gallien",
		"City" : "BORDEAUX",
		"Guid" : "50",
		"Point" : "44.8442 -0.58164",
		"Latitude" : 44.8442,
		"Longitude" : -0.58164,
		"AvailableSlots" : 14,
		"AvailableVehicules" : 0,
		"TotalSlots" : 14,
		"StationType" : "VLS",
		"Correspondance" : "83/Lianes 1/Lianes 16/Lianes 2/Lianes 3",
		"HasPaymentTerminal" : false,
		"IsStationOnline" : false
	}, {
		"StationId" : 37,
		"Title" : "Jardin Public",
		"PubDate" : "2015-06-07T12:34:03",
		"Address" : "60 cours de Verdun",
		"City" : "BORDEAUX",
		"Guid" : "59",
		"Point" : "44.8485 -0.57581",
		"Latitude" : 44.8485,
		"Longitude" : -0.57581,
		"AvailableSlots" : 19,
		"AvailableVehicules" : 1,
		"TotalSlots" : 20,
		"StationType" : "VLS",
		"Correspondance" : "C/26/29/56 exp/Lianes 15/Lianes 4/Lianes 5/Lianes 6",
		"HasPaymentTerminal" : false,
		"IsStationOnline" : false
	}, {
		"StationId" : 144,
		"Title" : "Jean Moulin",
		"PubDate" : "2015-06-07T12:34:03",
		"Address" : "92 Rue Andre Messager",
		"City" : "BRUGES",
		"Guid" : "155",
		"Point" : "44.8785 -0.58501",
		"Latitude" : 44.8785,
		"Longitude" : -0.58501,
		"AvailableSlots" : 5,
		"AvailableVehicules" : 14,
		"TotalSlots" : 19,
		"StationType" : "VLS",
		"Correspondance" : "",
		"HasPaymentTerminal" : false,
		"IsStationOnline" : false
	}, {
		"StationId" : 72,
		"Title" : "Jean Zay",
		"PubDate" : "2015-06-07T12:34:03",
		"Address" : "avenue Jean Zay, au niveau de la station Tram Jean Zay",
		"City" : "CENON",
		"Guid" : "5",
		"Point" : "44.8542 -0.51282",
		"Latitude" : 44.8542,
		"Longitude" : -0.51282,
		"AvailableSlots" : 13,
		"AvailableVehicules" : 10,
		"TotalSlots" : 24,
		"StationType" : "VLS+",
		"Correspondance" : "A/27/Flexo 51",
		"HasPaymentTerminal" : false,
		"IsStationOnline" : false
	}, {
		"StationId" : 87,
		"Title" : "Kennedy Parc Hotelier",
		"PubDate" : "2015-06-07T12:34:03",
		"Address" : "3, av Rudolf Diesel",
		"City" : "MERIGNAC",
		"Guid" : "30",
		"Point" : "44.8363 -0.68713",
		"Latitude" : 44.8363,
		"Longitude" : -0.68713,
		"AvailableSlots" : 9,
		"AvailableVehicules" : 10,
		"TotalSlots" : 20,
		"StationType" : "VLS+",
		"Correspondance" : "Lianes 1/Flexo 48",
		"HasPaymentTerminal" : false,
		"IsStationOnline" : false
	}, {
		"StationId" : 81,
		"Title" : "L. Morin Cazalet",
		"PubDate" : "2015-06-07T12:34:03",
		"Address" : "33 av du General Leclerc",
		"City" : "PESSAC",
		"Guid" : "21",
		"Point" : "44.7959 -0.66733",
		"Latitude" : 44.7959,
		"Longitude" : -0.66733,
		"AvailableSlots" : 10,
		"AvailableVehicules" : 8,
		"TotalSlots" : 18,
		"StationType" : "VLS+",
		"Correspondance" : "Citeis 44/Flexo 48/Lianes 4",
		"HasPaymentTerminal" : false,
		"IsStationOnline" : false
	}, {
		"StationId" : 64,
		"Title" : "La Benauge",
		"PubDate" : "2015-06-07T12:34:03",
		"Address" : "rue Henri Dunant, square Marie Louis Sue",
		"City" : "BORDEAUX",
		"Guid" : "110",
		"Point" : "44.8396 -0.55645",
		"Latitude" : 44.8396,
		"Longitude" : -0.55645,
		"AvailableSlots" : 16,
		"AvailableVehicules" : 1,
		"TotalSlots" : 18,
		"StationType" : "VLS",
		"Correspondance" : "Citeis 45/Specifique 80",
		"HasPaymentTerminal" : false,
		"IsStationOnline" : false
	}, {
		"StationId" : 82,
		"Title" : "La Chataigneraie",
		"PubDate" : "2015-06-07T12:34:03",
		"Address" : "avenue de Canejean",
		"City" : "PESSAC",
		"Guid" : "22",
		"Point" : "44.7929 -0.646629",
		"Latitude" : 44.7929,
		"Longitude" : -0.646629,
		"AvailableSlots" : 13,
		"AvailableVehicules" : 7,
		"TotalSlots" : 18,
		"StationType" : "VLS+",
		"Correspondance" : "B/24/Corol 34/Flexo 54",
		"HasPaymentTerminal" : false,
		"IsStationOnline" : false
	}, {
		"StationId" : 71,
		"Title" : "La Gardette",
		"PubDate" : "2015-06-07T12:34:03",
		"Address" : "avenue des Griffons, terminus bus",
		"City" : "LORMONT",
		"Guid" : "4",
		"Point" : "44.8875 -0.51763",
		"Latitude" : 44.8875,
		"Longitude" : -0.51763,
		"AvailableSlots" : 10,
		"AvailableVehicules" : 7,
		"TotalSlots" : 18,
		"StationType" : "VLS+",
		"Correspondance" : "A/Lianes 7/90/Flexo 50",
		"HasPaymentTerminal" : false,
		"IsStationOnline" : false
	}, {
		"StationId" : 30,
		"Title" : "La Glaciere Mondesir",
		"PubDate" : "2015-06-07T12:34:03",
		"Address" : "place Mondesir, face a La Poste",
		"City" : "MERIGNAC",
		"Guid" : "26",
		"Point" : "44.8384 -0.61689",
		"Latitude" : 44.8384,
		"Longitude" : -0.61689,
		"AvailableSlots" : 9,
		"AvailableVehicules" : 9,
		"TotalSlots" : 18,
		"StationType" : "VLS",
		"Correspondance" : "Citeis 41/Citeis 42/Lianes 1",
		"HasPaymentTerminal" : false,
		"IsStationOnline" : false
	}, {
		"StationId" : 149,
		"Title" : "Lauriers",
		"PubDate" : "2015-06-07T12:34:03",
		"Address" : "9 Avenue de la Resistance",
		"City" : "LORMONT",
		"Guid" : "127",
		"Point" : "44.8789 -0.51783",
		"Latitude" : 44.8789,
		"Longitude" : -0.51783,
		"AvailableSlots" : 16,
		"AvailableVehicules" : 4,
		"TotalSlots" : 20,
		"StationType" : "VLS+",
		"Correspondance" : "A/Citeis 40",
		"HasPaymentTerminal" : false,
		"IsStationOnline" : false
	}, {
		"StationId" : 49,
		"Title" : "Le Bouscat Mairie",
		"PubDate" : "2015-06-07T12:34:03",
		"Address" : "43 rue Emile Zola",
		"City" : "LE BOUSCAT",
		"Guid" : "37",
		"Point" : "44.8633 -0.59995",
		"Latitude" : 44.8633,
		"Longitude" : -0.59995,
		"AvailableSlots" : 2,
		"AvailableVehicules" : 16,
		"TotalSlots" : 18,
		"StationType" : "VLS",
		"Correspondance" : "56 exp/72/Lianes 6",
		"HasPaymentTerminal" : false,
		"IsStationOnline" : false
	}, {
		"StationId" : 118,
		"Title" : "Le Bouscat Ravezies",
		"PubDate" : "2015-06-07T12:34:03",
		"Address" : "allee de Boutaut, au niveau du P+R",
		"City" : "LE BOUSCAT",
		"Guid" : "40",
		"Point" : "44.8669 -0.57608",
		"Latitude" : 44.8669,
		"Longitude" : -0.57608,
		"AvailableSlots" : 11,
		"AvailableVehicules" : 9,
		"TotalSlots" : 20,
		"StationType" : "VLS",
		"Correspondance" : "TER/C/73/Citeis 46/Lianes 9/Corol 32/704/705/706",
		"HasPaymentTerminal" : false,
		"IsStationOnline" : false
	}, {
		"StationId" : 84,
		"Title" : "Le Burck",
		"PubDate" : "2015-06-07T12:34:03",
		"Address" : "face au 110 avenue Pierre Mendes France",
		"City" : "MERIGNAC",
		"Guid" : "27",
		"Point" : "44.8153 -0.63444",
		"Latitude" : 44.8153,
		"Longitude" : -0.63444,
		"AvailableSlots" : 13,
		"AvailableVehicules" : 5,
		"TotalSlots" : 18,
		"StationType" : "VLS+",
		"Correspondance" : "23/Citeis 42/Corol 35/Flexo 48/Flexo 54",
		"HasPaymentTerminal" : false,
		"IsStationOnline" : false
	}, {
		"StationId" : 158,
		"Title" : "Le Haillan Rostand",
		"PubDate" : "2015-06-07T12:34:03",
		"Address" : "Avenue de Magudas",
		"City" : "LE HAILLAN",
		"Guid" : "162",
		"Point" : "44.8586 -0.668345",
		"Latitude" : 44.8586,
		"Longitude" : -0.668345,
		"AvailableSlots" : 17,
		"AvailableVehicules" : 3,
		"TotalSlots" : 20,
		"StationType" : "VLS+",
		"Correspondance" : "A/30/Flexo 48/71",
		"HasPaymentTerminal" : false,
		"IsStationOnline" : false
	}, {
		"StationId" : 161,
		"Title" : "Le Taillan Mairie",
		"PubDate" : "2015-06-07T12:34:03",
		"Address" : "62-64 avenue de Soulac",
		"City" : "LE TAILLAN-MEDOC",
		"Guid" : "157",
		"Point" : "44.904 -0.6689",
		"Latitude" : 44.904,
		"Longitude" : -0.6689,
		"AvailableSlots" : 5,
		"AvailableVehicules" : 7,
		"TotalSlots" : 15,
		"StationType" : "VLS+",
		"Correspondance" : "Lianes 5/Resago Taillan/Specifique 79",
		"HasPaymentTerminal" : false,
		"IsStationOnline" : false
	}, {
		"StationId" : 96,
		"Title" : "Les Aubiers",
		"PubDate" : "2015-06-07T12:34:03",
		"Address" : "avenue de Laroque, derriere la station tram",
		"City" : "BORDEAUX",
		"Guid" : "73",
		"Point" : "44.8739 -0.57401",
		"Latitude" : 44.8739,
		"Longitude" : -0.57401,
		"AvailableSlots" : 1,
		"AvailableVehicules" : 25,
		"TotalSlots" : 26,
		"StationType" : "VLS+",
		"Correspondance" : "C/Lianes 7/Lianes 14/Lianes 15/Corol 33/Corol 35/Corol 37/Flexo 57/202/704/705/706",
		"HasPaymentTerminal" : false,
		"IsStationOnline" : false
	}, {
		"StationId" : 99,
		"Title" : "Les Hangars",
		"PubDate" : "2015-06-07T12:34:03",
		"Address" : "face au 36 quai de Bacalan",
		"City" : "BORDEAUX",
		"Guid" : "76",
		"Point" : "44.8579 -0.55808",
		"Latitude" : 44.8579,
		"Longitude" : -0.55808,
		"AvailableSlots" : 1,
		"AvailableVehicules" : 18,
		"TotalSlots" : 20,
		"StationType" : "VLS",
		"Correspondance" : "B",
		"HasPaymentTerminal" : false,
		"IsStationOnline" : false
	}, {
		"StationId" : 157,
		"Title" : "Les Pins",
		"PubDate" : "2015-06-07T12:34:03",
		"Address" : "2 rue Alphonse Daudet",
		"City" : "MERIGNAC",
		"Guid" : "161",
		"Point" : "44.8568 -0.659829",
		"Latitude" : 44.8568,
		"Longitude" : -0.659829,
		"AvailableSlots" : 13,
		"AvailableVehicules" : 7,
		"TotalSlots" : 20,
		"StationType" : "VLS+",
		"Correspondance" : "A/Lianes 16/Corol 34/71",
		"HasPaymentTerminal" : false,
		"IsStationOnline" : false
	}, {
		"StationId" : 24,
		"Title" : "Liberation",
		"PubDate" : "2015-06-07T12:34:03",
		"Address" : "face au 9 rue Leo Drouyn",
		"City" : "BORDEAUX",
		"Guid" : "94",
		"Point" : "44.8332 -0.58308",
		"Latitude" : 44.8332,
		"Longitude" : -0.58308,
		"AvailableSlots" : 14,
		"AvailableVehicules" : 2,
		"TotalSlots" : 16,
		"StationType" : "VLS",
		"Correspondance" : "24",
		"HasPaymentTerminal" : false,
		"IsStationOnline" : false
	}, {
		"StationId" : 139,
		"Title" : "Lycee Bremontier",
		"PubDate" : "2015-06-07T12:34:03",
		"Address" : "152 cours de l'Yser",
		"City" : "BORDEAUX",
		"Guid" : "127",
		"Point" : "44.8241 -0.57024",
		"Latitude" : 44.8241,
		"Longitude" : -0.57024,
		"AvailableSlots" : 11,
		"AvailableVehicules" : 7,
		"TotalSlots" : 18,
		"StationType" : "VLS",
		"Correspondance" : "20/58/Lianes 5/Lianes 10 (special Train)/Citeis 43",
		"HasPaymentTerminal" : false,
		"IsStationOnline" : false
	}, {
		"StationId" : 163,
		"Title" : "Lycee Vaclav Havel",
		"PubDate" : "2015-06-07T12:34:03",
		"Address" : "route de Toulouse",
		"City" : "VILLENAVE-D'ORNON",
		"Guid" : "164",
		"Point" : "44.7873 -0.566155",
		"Latitude" : 44.7873,
		"Longitude" : -0.566155,
		"AvailableSlots" : 3,
		"AvailableVehicules" : 17,
		"TotalSlots" : 20,
		"StationType" : "VLS+",
		"Correspondance" : "C/Lianes 5/Lianes 15/Corol 34/Citeis 43",
		"HasPaymentTerminal" : false,
		"IsStationOnline" : false
	}, {
		"StationId" : 47,
		"Title" : "Magendie",
		"PubDate" : "2015-06-07T12:34:03",
		"Address" : "212 rue Fernand Audeguil",
		"City" : "BORDEAUX",
		"Guid" : "106",
		"Point" : "44.8279 -0.58605",
		"Latitude" : 44.8279,
		"Longitude" : -0.58605,
		"AvailableSlots" : 13,
		"AvailableVehicules" : 2,
		"TotalSlots" : 16,
		"StationType" : "VLS",
		"Correspondance" : "Lianes 11/Lianes 4/26",
		"HasPaymentTerminal" : false,
		"IsStationOnline" : false
	}, {
		"StationId" : 91,
		"Title" : "Mairie du Haillan",
		"PubDate" : "2015-06-07T12:34:03",
		"Address" : "face au 4 rue Georges Clemenceau",
		"City" : "LE HAILLAN",
		"Guid" : "34",
		"Point" : "44.8737 -0.67753",
		"Latitude" : 44.8737,
		"Longitude" : -0.67753,
		"AvailableSlots" : 7,
		"AvailableVehicules" : 9,
		"TotalSlots" : 16,
		"StationType" : "VLS+",
		"Correspondance" : "30/Lianes 3/701/702",
		"HasPaymentTerminal" : false,
		"IsStationOnline" : false
	}, {
		"StationId" : 50,
		"Title" : "Mandron Godard",
		"PubDate" : "2015-06-07T12:34:03",
		"Address" : "14 boulevard Godard",
		"City" : "BORDEAUX",
		"Guid" : "63",
		"Point" : "44.86 -0.58876",
		"Latitude" : 44.86,
		"Longitude" : -0.58876,
		"AvailableSlots" : 5,
		"AvailableVehicules" : 9,
		"TotalSlots" : 14,
		"StationType" : "VLS",
		"Correspondance" : "Lianes 9",
		"HasPaymentTerminal" : false,
		"IsStationOnline" : false
	}, {
		"StationId" : 1,
		"Title" : "Meriadeck",
		"PubDate" : "2015-06-07T12:34:03",
		"Address" : "rue Claude Bonnier, niveau station tram",
		"City" : "BORDEAUX",
		"Guid" : "83",
		"Point" : "44.838 -0.58437",
		"Latitude" : 44.838,
		"Longitude" : -0.58437,
		"AvailableSlots" : 3,
		"AvailableVehicules" : 17,
		"TotalSlots" : 20,
		"StationType" : "VLS",
		"Correspondance" : "A/Lianes 16",
		"HasPaymentTerminal" : false,
		"IsStationOnline" : false
	}, {
		"StationId" : 88,
		"Title" : "Merignac Capeyron",
		"PubDate" : "2015-06-07T12:34:03",
		"Address" : "place Jean Jaures",
		"City" : "MERIGNAC",
		"Guid" : "31",
		"Point" : "44.851 -0.64475",
		"Latitude" : 44.851,
		"Longitude" : -0.64475,
		"AvailableSlots" : 9,
		"AvailableVehicules" : 9,
		"TotalSlots" : 18,
		"StationType" : "VLS+",
		"Correspondance" : "71/Corol 33/Corol 35/Lianes 16/701/702",
		"HasPaymentTerminal" : false,
		"IsStationOnline" : false
	}, {
		"StationId" : 89,
		"Title" : "Merignac Centre",
		"PubDate" : "2015-06-07T12:34:03",
		"Address" : "face au 12 avenue du Marechal Leclerc",
		"City" : "MERIGNAC",
		"Guid" : "32",
		"Point" : "44.841 -0.64707",
		"Latitude" : 44.841,
		"Longitude" : -0.64707,
		"AvailableSlots" : 1,
		"AvailableVehicules" : 20,
		"TotalSlots" : 21,
		"StationType" : "VLS+",
		"Correspondance" : "A/30/Citeis 42/Corol 33/Corol 35/Lianes 11/603/701/702",
		"HasPaymentTerminal" : false,
		"IsStationOnline" : false
	}, {
		"StationId" : 85,
		"Title" : "Merignac Quatre Chemins",
		"PubDate" : "2015-06-07T12:34:03",
		"Address" : "avenue de la Marne, devant le P+R",
		"City" : "MERIGNAC",
		"Guid" : "28",
		"Point" : "44.8324 -0.64594",
		"Latitude" : 44.8324,
		"Longitude" : -0.64594,
		"AvailableSlots" : 2,
		"AvailableVehicules" : 16,
		"TotalSlots" : 18,
		"StationType" : "VLS+",
		"Correspondance" : "A/Corol 34",
		"HasPaymentTerminal" : false,
		"IsStationOnline" : false
	}, {
		"StationId" : 86,
		"Title" : "Merignac Soleil",
		"PubDate" : "2015-06-07T12:34:03",
		"Address" : "avenue de la Somme - ilot Mirepin",
		"City" : "MERIGNAC",
		"Guid" : "29",
		"Point" : "44.8319 -0.654779",
		"Latitude" : 44.8319,
		"Longitude" : -0.654779,
		"AvailableSlots" : 8,
		"AvailableVehicules" : 12,
		"TotalSlots" : 20,
		"StationType" : "VLS+",
		"Correspondance" : "Lianes 1/Corol 34/Corol 33/30/70",
		"HasPaymentTerminal" : false,
		"IsStationOnline" : false
	}, {
		"StationId" : 116,
		"Title" : "Montaigne Montesquieu",
		"PubDate" : "2015-06-07T12:34:03",
		"Address" : "station tram Montaigne Montesquieu",
		"City" : "PESSAC",
		"Guid" : "16",
		"Point" : "44.7967 -0.61704",
		"Latitude" : 44.7967,
		"Longitude" : -0.61704,
		"AvailableSlots" : 17,
		"AvailableVehicules" : 23,
		"TotalSlots" : 40,
		"StationType" : "VLS",
		"Correspondance" : "B",
		"HasPaymentTerminal" : false,
		"IsStationOnline" : false
	}, {
		"StationId" : 44,
		"Title" : "Musee d'Aquitaine",
		"PubDate" : "2015-06-07T12:34:03",
		"Address" : "16 cours Pasteur",
		"City" : "BORDEAUX",
		"Guid" : "103",
		"Point" : "44.8361 -0.57544",
		"Latitude" : 44.8361,
		"Longitude" : -0.57544,
		"AvailableSlots" : 17,
		"AvailableVehicules" : 3,
		"TotalSlots" : 20,
		"StationType" : "VLS",
		"Correspondance" : "B/24/Citeis 45",
		"HasPaymentTerminal" : false,
		"IsStationOnline" : false
	}, {
		"StationId" : 131,
		"Title" : "Nansouty",
		"PubDate" : "2015-06-07T12:34:03",
		"Address" : "place Nansouty, 238 cours de l'Yser",
		"City" : "BORDEAUX",
		"Guid" : "127",
		"Point" : "44.8203 -0.57185",
		"Latitude" : 44.8203,
		"Longitude" : -0.57185,
		"AvailableSlots" : 16,
		"AvailableVehicules" : 0,
		"TotalSlots" : 16,
		"StationType" : "VLS",
		"Correspondance" : "20/58/Lianes 5/Lianes 9/Lianes 10 (special Train)/Citeis 43",
		"HasPaymentTerminal" : false,
		"IsStationOnline" : false
	}, {
		"StationId" : 7,
		"Title" : "Palais de Justice",
		"PubDate" : "2015-06-07T12:34:03",
		"Address" : "18 cours du Marechal Juin",
		"City" : "BORDEAUX",
		"Guid" : "86",
		"Point" : "44.8359 -0.58211",
		"Latitude" : 44.8359,
		"Longitude" : -0.58211,
		"AvailableSlots" : 18,
		"AvailableVehicules" : 0,
		"TotalSlots" : 18,
		"StationType" : "VLS",
		"Correspondance" : "A/Lianes 15/Lianes 16/Lianes 4/Lianes 5/Lianes 6/56 exp",
		"HasPaymentTerminal" : false,
		"IsStationOnline" : false
	}, {
		"StationId" : 146,
		"Title" : "Palais des Congres",
		"PubDate" : "2015-06-07T12:34:03",
		"Address" : "Avenue Jean Gabriel Domergue",
		"City" : "BORDEAUX",
		"Guid" : "158",
		"Point" : "44.8894 -0.567319",
		"Latitude" : 44.8894,
		"Longitude" : -0.567319,
		"AvailableSlots" : 24,
		"AvailableVehicules" : 6,
		"TotalSlots" : 30,
		"StationType" : "VLS+",
		"Correspondance" : "C/Corol 32",
		"HasPaymentTerminal" : false,
		"IsStationOnline" : false
	}, {
		"StationId" : 17,
		"Title" : "Palais Gallien",
		"PubDate" : "2015-06-07T12:34:03",
		"Address" : "1 rue Emile Fourcand",
		"City" : "BORDEAUX",
		"Guid" : "49",
		"Point" : "44.8469 -0.58219",
		"Latitude" : 44.8469,
		"Longitude" : -0.58219,
		"AvailableSlots" : 13,
		"AvailableVehicules" : 1,
		"TotalSlots" : 14,
		"StationType" : "VLS",
		"Correspondance" : "26",
		"HasPaymentTerminal" : false,
		"IsStationOnline" : false
	}, {
		"StationId" : 61,
		"Title" : "Parc aux Angeliques",
		"PubDate" : "2015-06-07T12:34:03",
		"Address" : "angle quai de Queyries / allee Jean Giono",
		"City" : "BORDEAUX",
		"Guid" : "109",
		"Point" : "44.8462 -0.56495",
		"Latitude" : 44.8462,
		"Longitude" : -0.56495,
		"AvailableSlots" : 11,
		"AvailableVehicules" : 5,
		"TotalSlots" : 16,
		"StationType" : "VLS",
		"Correspondance" : "91/92/Citeis 45/Flexo 50",
		"HasPaymentTerminal" : false,
		"IsStationOnline" : false
	}, {
		"StationId" : 32,
		"Title" : "Parc Bordelais",
		"PubDate" : "2015-06-07T12:34:03",
		"Address" : "67 avenue Carnot",
		"City" : "BORDEAUX",
		"Guid" : "54",
		"Point" : "44.8526 -0.59923",
		"Latitude" : 44.8526,
		"Longitude" : -0.59923,
		"AvailableSlots" : 5,
		"AvailableVehicules" : 11,
		"TotalSlots" : 16,
		"StationType" : "VLS",
		"Correspondance" : "Lianes 5",
		"HasPaymentTerminal" : false,
		"IsStationOnline" : false
	}, {
		"StationId" : 147,
		"Title" : "Parc des Expositions",
		"PubDate" : "2015-06-07T12:34:03",
		"Address" : "Allee Louis Ratabou",
		"City" : "BORDEAUX",
		"Guid" : "159",
		"Point" : "44.8939 -0.566225",
		"Latitude" : 44.8939,
		"Longitude" : -0.566225,
		"AvailableSlots" : 5,
		"AvailableVehicules" : 25,
		"TotalSlots" : 30,
		"StationType" : "VLS+",
		"Correspondance" : "C",
		"HasPaymentTerminal" : false,
		"IsStationOnline" : false
	}, {
		"StationId" : 124,
		"Title" : "Parc des Sports",
		"PubDate" : "2015-06-07T12:34:03",
		"Address" : "face au 18 quai de la Monnaie",
		"City" : "BORDEAUX",
		"Guid" : "125",
		"Point" : "44.8339 -0.56271",
		"Latitude" : 44.8339,
		"Longitude" : -0.56271,
		"AvailableSlots" : 20,
		"AvailableVehicules" : 0,
		"TotalSlots" : 20,
		"StationType" : "VLS",
		"Correspondance" : "C",
		"HasPaymentTerminal" : false,
		"IsStationOnline" : false
	}, {
		"StationId" : 53,
		"Title" : "Parc Riviere",
		"PubDate" : "2015-06-07T12:34:03",
		"Address" : "face au 230 rue Camille Godard",
		"City" : "BORDEAUX",
		"Guid" : "66",
		"Point" : "44.8542 -0.58659",
		"Latitude" : 44.8542,
		"Longitude" : -0.58659,
		"AvailableSlots" : 14,
		"AvailableVehicules" : 0,
		"TotalSlots" : 14,
		"StationType" : "VLS",
		"Correspondance" : "72",
		"HasPaymentTerminal" : false,
		"IsStationOnline" : false
	}, {
		"StationId" : 153,
		"Title" : "Parc Sourreil",
		"PubDate" : "2015-06-07T12:34:03",
		"Address" : "Face au 325 Chemin de Leysotte",
		"City" : "VILLENAVE-D'ORNON",
		"Guid" : "150",
		"Point" : "44.7923 -0.581696",
		"Latitude" : 44.7923,
		"Longitude" : -0.581696,
		"AvailableSlots" : 2,
		"AvailableVehicules" : 18,
		"TotalSlots" : 20,
		"StationType" : "VLS+",
		"Correspondance" : "87",
		"HasPaymentTerminal" : false,
		"IsStationOnline" : false
	}, {
		"StationId" : 8,
		"Title" : "Patinoire",
		"PubDate" : "2015-06-07T12:34:03",
		"Address" : "120 cours Marechal Juin",
		"City" : "BORDEAUX",
		"Guid" : "87",
		"Point" : "44.8344 -0.58825",
		"Latitude" : 44.8344,
		"Longitude" : -0.58825,
		"AvailableSlots" : 17,
		"AvailableVehicules" : 3,
		"TotalSlots" : 20,
		"StationType" : "VLS",
		"Correspondance" : "A/26",
		"HasPaymentTerminal" : false,
		"IsStationOnline" : false
	}, {
		"StationId" : 111,
		"Title" : "Peixotto",
		"PubDate" : "2015-06-07T12:34:03",
		"Address" : "avenue Roul (terminus bus)",
		"City" : "TALENCE",
		"Guid" : "11",
		"Point" : "44.8068 -0.59245",
		"Latitude" : 44.8068,
		"Longitude" : -0.59245,
		"AvailableSlots" : 16,
		"AvailableVehicules" : 24,
		"TotalSlots" : 40,
		"StationType" : "VLS",
		"Correspondance" : "B/21/58/Corol 35/Lianes 10/Lianes 10 (special Train)/502/503/504/505",
		"HasPaymentTerminal" : false,
		"IsStationOnline" : false
	}, {
		"StationId" : 28,
		"Title" : "Pellegrin",
		"PubDate" : "2015-06-07T12:34:03",
		"Address" : "place Amelie Raba Leon, au niveau de l'EFS",
		"City" : "BORDEAUX",
		"Guid" : "98",
		"Point" : "44.8299 -0.60351",
		"Latitude" : 44.8299,
		"Longitude" : -0.60351,
		"AvailableSlots" : 5,
		"AvailableVehicules" : 15,
		"TotalSlots" : 20,
		"StationType" : "VLS",
		"Correspondance" : "A/Citeis 41/Lianes 8/Lianes 11/701/702",
		"HasPaymentTerminal" : false,
		"IsStationOnline" : false
	}, {
		"StationId" : 79,
		"Title" : "Pessac Bersol",
		"PubDate" : "2015-06-07T12:34:03",
		"Address" : "2 rue Gustave Eiffel",
		"City" : "PESSAC",
		"Guid" : "19",
		"Point" : "44.7862 -0.63874",
		"Latitude" : 44.7862,
		"Longitude" : -0.63874,
		"AvailableSlots" : 19,
		"AvailableVehicules" : 1,
		"TotalSlots" : 20,
		"StationType" : "VLS+",
		"Correspondance" : "24/Citeis 44/Corol 34/Flexo 54",
		"HasPaymentTerminal" : false,
		"IsStationOnline" : false
	}, {
		"StationId" : 83,
		"Title" : "Pessac Centre",
		"PubDate" : "2015-06-07T12:34:03",
		"Address" : "25 rue Eugene et Marc Dulout",
		"City" : "PESSAC",
		"Guid" : "23",
		"Point" : "44.8045 -0.63267",
		"Latitude" : 44.8045,
		"Longitude" : -0.63267,
		"AvailableSlots" : 1,
		"AvailableVehicules" : 20,
		"TotalSlots" : 21,
		"StationType" : "VLS+",
		"Correspondance" : "TER/B/23/24/87/Corol 35/Corol 36/Citeis 42/Citeis 44/Flexo 48/Flexo 54/Lianes 4",
		"HasPaymentTerminal" : false,
		"IsStationOnline" : false
	}, {
		"StationId" : 143,
		"Title" : "Pins Francs",
		"PubDate" : "2015-06-07T12:34:03",
		"Address" : "En face du 46 rue Domion",
		"City" : "BORDEAUX",
		"Guid" : "147",
		"Point" : "44.8581 -0.623341",
		"Latitude" : 44.8581,
		"Longitude" : -0.623341,
		"AvailableSlots" : 6,
		"AvailableVehicules" : 12,
		"TotalSlots" : 18,
		"StationType" : "VLS",
		"Correspondance" : "Lianes 3",
		"HasPaymentTerminal" : false,
		"IsStationOnline" : false
	}, {
		"StationId" : 137,
		"Title" : "Pl. Andre Meunier",
		"PubDate" : "2015-06-07T12:34:03",
		"Address" : "Cours Barbey, a l'angle avec le cours de la Marne",
		"City" : "BORDEAUX",
		"Guid" : "127",
		"Point" : "44.8283 -0.562299",
		"Latitude" : 44.8283,
		"Longitude" : -0.562299,
		"AvailableSlots" : 25,
		"AvailableVehicules" : 0,
		"TotalSlots" : 25,
		"StationType" : "VLS",
		"Correspondance" : "58/Citeis 45/Lianes 10 (special Train)/Lianes 11/Lianes 16",
		"HasPaymentTerminal" : false,
		"IsStationOnline" : false
	}, {
		"StationId" : 77,
		"Title" : "Pl. Bernard Roumegoux",
		"PubDate" : "2015-06-07T12:34:03",
		"Address" : "place Bernard Roumegoux",
		"City" : "GRADIGNAN",
		"Guid" : "17",
		"Point" : "44.7735 -0.61432",
		"Latitude" : 44.7735,
		"Longitude" : -0.61432,
		"AvailableSlots" : 1,
		"AvailableVehicules" : 19,
		"TotalSlots" : 20,
		"StationType" : "VLS+",
		"Correspondance" : "Corol 36/Lianes 10/505",
		"HasPaymentTerminal" : false,
		"IsStationOnline" : false
	}, {
		"StationId" : 38,
		"Title" : "Pl. Charles Gruet",
		"PubDate" : "2015-06-07T12:34:03",
		"Address" : "16 place Charles Gruet",
		"City" : "BORDEAUX",
		"Guid" : "60",
		"Point" : "44.8464 -0.5802",
		"Latitude" : 44.8464,
		"Longitude" : -0.5802,
		"AvailableSlots" : 13,
		"AvailableVehicules" : 3,
		"TotalSlots" : 16,
		"StationType" : "VLS",
		"Correspondance" : "26/29/Lianes 5/Lianes 6",
		"HasPaymentTerminal" : false,
		"IsStationOnline" : false
	}, {
		"StationId" : 36,
		"Title" : "Pl. de Longchamps",
		"PubDate" : "2015-06-07T12:34:03",
		"Address" : "face au 2 place de Longchamps",
		"City" : "BORDEAUX",
		"Guid" : "58",
		"Point" : "44.8501 -0.582",
		"Latitude" : 44.8501,
		"Longitude" : -0.582,
		"AvailableSlots" : 16,
		"AvailableVehicules" : 0,
		"TotalSlots" : 18,
		"StationType" : "VLS",
		"Correspondance" : "26/29/56 exp/Lianes 5/Lianes 6",
		"HasPaymentTerminal" : false,
		"IsStationOnline" : false
	}, {
		"StationId" : 134,
		"Title" : "Pl. du Maucaillou",
		"PubDate" : "2015-06-07T12:34:03",
		"Address" : "20 place du Maucaillou",
		"City" : "BORDEAUX",
		"Guid" : "127",
		"Point" : "44.8326 -0.56711",
		"Latitude" : 44.8326,
		"Longitude" : -0.56711,
		"AvailableSlots" : 8,
		"AvailableVehicules" : 12,
		"TotalSlots" : 19,
		"StationType" : "VLS",
		"Correspondance" : "Citeis 47",
		"HasPaymentTerminal" : false,
		"IsStationOnline" : false
	}, {
		"StationId" : 101,
		"Title" : "Pl. Jean Jaures",
		"PubDate" : "2015-06-07T12:34:03",
		"Address" : "quai marechal Lyautey",
		"City" : "BORDEAUX",
		"Guid" : "78",
		"Point" : "44.8429 -0.57037",
		"Latitude" : 44.8429,
		"Longitude" : -0.57037,
		"AvailableSlots" : 9,
		"AvailableVehicules" : 10,
		"TotalSlots" : 20,
		"StationType" : "VLS",
		"Correspondance" : "C/Citeis 47",
		"HasPaymentTerminal" : false,
		"IsStationOnline" : false
	}, {
		"StationId" : 35,
		"Title" : "Pl. Marie Brizard",
		"PubDate" : "2015-06-07T12:34:03",
		"Address" : "209 rue Fondaudege",
		"City" : "BORDEAUX",
		"Guid" : "57",
		"Point" : "44.8501 -0.58547",
		"Latitude" : 44.8501,
		"Longitude" : -0.58547,
		"AvailableSlots" : 7,
		"AvailableVehicules" : 9,
		"TotalSlots" : 16,
		"StationType" : "VLS",
		"Correspondance" : "29/56 exp/Lianes 5/Lianes 6",
		"HasPaymentTerminal" : false,
		"IsStationOnline" : false
	}, {
		"StationId" : 56,
		"Title" : "Pl. Paul Doumer",
		"PubDate" : "2015-06-07T12:34:03",
		"Address" : "place Paul Doumer",
		"City" : "BORDEAUX",
		"Guid" : "68",
		"Point" : "44.8517 -0.57427",
		"Latitude" : 44.8517,
		"Longitude" : -0.57427,
		"AvailableSlots" : 20,
		"AvailableVehicules" : 0,
		"TotalSlots" : 20,
		"StationType" : "VLS",
		"Correspondance" : "C/Lianes 15/Lianes 4",
		"HasPaymentTerminal" : false,
		"IsStationOnline" : false
	}, {
		"StationId" : 45,
		"Title" : "Pl. Ste Eulalie",
		"PubDate" : "2015-06-07T12:34:03",
		"Address" : "2 place Ste Eulalie",
		"City" : "BORDEAUX",
		"Guid" : "104",
		"Point" : "44.8331 -0.57695",
		"Latitude" : 44.8331,
		"Longitude" : -0.57695,
		"AvailableSlots" : 19,
		"AvailableVehicules" : 0,
		"TotalSlots" : 20,
		"StationType" : "VLS",
		"Correspondance" : "Citeis 45/Lianes 15/Lianes 16/Lianes 5",
		"HasPaymentTerminal" : false,
		"IsStationOnline" : false
	}, {
		"StationId" : 51,
		"Title" : "Place Ampere",
		"PubDate" : "2015-06-07T12:34:03",
		"Address" : "rue Jean Artus",
		"City" : "BORDEAUX",
		"Guid" : "64",
		"Point" : "44.8628 -0.58339",
		"Latitude" : 44.8628,
		"Longitude" : -0.58339,
		"AvailableSlots" : 18,
		"AvailableVehicules" : 2,
		"TotalSlots" : 20,
		"StationType" : "VLS",
		"Correspondance" : "Lianes 9",
		"HasPaymentTerminal" : false,
		"IsStationOnline" : false
	}, {
		"StationId" : 52,
		"Title" : "Place de l'Europe",
		"PubDate" : "2015-06-07T12:34:03",
		"Address" : "cours de Luze, face a la mairie annexe",
		"City" : "BORDEAUX",
		"Guid" : "65",
		"Point" : "44.8589 -0.58112",
		"Latitude" : 44.8589,
		"Longitude" : -0.58112,
		"AvailableSlots" : 16,
		"AvailableVehicules" : 2,
		"TotalSlots" : 18,
		"StationType" : "VLS",
		"Correspondance" : "Lianes 15",
		"HasPaymentTerminal" : false,
		"IsStationOnline" : false
	}, {
		"StationId" : 102,
		"Title" : "Place de la Bourse",
		"PubDate" : "2015-06-07T12:34:03",
		"Address" : "6 quai de la Douane",
		"City" : "BORDEAUX",
		"Guid" : "116",
		"Point" : "44.8403 -0.56914",
		"Latitude" : 44.8403,
		"Longitude" : -0.56914,
		"AvailableSlots" : 12,
		"AvailableVehicules" : 5,
		"TotalSlots" : 20,
		"StationType" : "VLS",
		"Correspondance" : "C",
		"HasPaymentTerminal" : false,
		"IsStationOnline" : false
	}, {
		"StationId" : 106,
		"Title" : "Place de la Victoire",
		"PubDate" : "2015-06-07T12:34:03",
		"Address" : "23 place de la Victoire",
		"City" : "BORDEAUX",
		"Guid" : "120",
		"Point" : "44.8306 -0.57321",
		"Latitude" : 44.8306,
		"Longitude" : -0.57321,
		"AvailableSlots" : 35,
		"AvailableVehicules" : 5,
		"TotalSlots" : 40,
		"StationType" : "VLS",
		"Correspondance" : "B/Lianes 5/Lianes 11/Lianes 15/Lianes 16/Citeis 45/Citeis 43/20/701/702",
		"HasPaymentTerminal" : false,
		"IsStationOnline" : false
	}, {
		"StationId" : 74,
		"Title" : "Place du 14 juillet",
		"PubDate" : "2015-06-07T12:34:03",
		"Address" : "2 rue Calixte Camelle",
		"City" : "BEGLES",
		"Guid" : "7",
		"Point" : "44.8077 -0.54821",
		"Latitude" : 44.8077,
		"Longitude" : -0.54821,
		"AvailableSlots" : 2,
		"AvailableVehicules" : 20,
		"TotalSlots" : 22,
		"StationType" : "VLS+",
		"Correspondance" : "Citeis 43/Lianes 11",
		"HasPaymentTerminal" : false,
		"IsStationOnline" : false
	}, {
		"StationId" : 103,
		"Title" : "Place du Palais",
		"PubDate" : "2015-06-07T12:34:03",
		"Address" : "40, cours Alsace et Lorraine",
		"City" : "BORDEAUX",
		"Guid" : "117",
		"Point" : "44.8378 -0.57034",
		"Latitude" : 44.8378,
		"Longitude" : -0.57034,
		"AvailableSlots" : 18,
		"AvailableVehicules" : 2,
		"TotalSlots" : 20,
		"StationType" : "VLS",
		"Correspondance" : "A",
		"HasPaymentTerminal" : false,
		"IsStationOnline" : false
	}, {
		"StationId" : 5,
		"Title" : "Place Gambetta",
		"PubDate" : "2015-06-07T12:34:03",
		"Address" : "face au 40 place Gambetta",
		"City" : "BORDEAUX",
		"Guid" : "43",
		"Point" : "44.8415 -0.5808",
		"Latitude" : 44.8415,
		"Longitude" : -0.5808,
		"AvailableSlots" : 14,
		"AvailableVehicules" : 5,
		"TotalSlots" : 20,
		"StationType" : "VLS",
		"Correspondance" : "56exp/83/Lianes 1/Lianes 2/Lianes 3/Lianes 4/Lianes 5/Lianes 6/Lianes 15/Lianes 16/601",
		"HasPaymentTerminal" : false,
		"IsStationOnline" : false
	}, {
		"StationId" : 121,
		"Title" : "Place St Martial",
		"PubDate" : "2015-06-07T12:34:03",
		"Address" : "face au 30 place St Martial",
		"City" : "BORDEAUX",
		"Guid" : "81",
		"Point" : "44.8589 -0.56584",
		"Latitude" : 44.8589,
		"Longitude" : -0.56584,
		"AvailableSlots" : 4,
		"AvailableVehicules" : 10,
		"TotalSlots" : 14,
		"StationType" : "VLS",
		"Correspondance" : "Lianes 4/Citeis 46",
		"HasPaymentTerminal" : false,
		"IsStationOnline" : false
	}, {
		"StationId" : 135,
		"Title" : "Place St Michel",
		"PubDate" : "2015-06-07T12:34:03",
		"Address" : "30 place Meynard",
		"City" : "BORDEAUX",
		"Guid" : "127",
		"Point" : "44.8346 -0.56661",
		"Latitude" : 44.8346,
		"Longitude" : -0.56661,
		"AvailableSlots" : 0,
		"AvailableVehicules" : 1,
		"TotalSlots" : 20,
		"StationType" : "VLS",
		"Correspondance" : "Citeis 45/24/Citeis 47",
		"HasPaymentTerminal" : false,
		"IsStationOnline" : false
	}, {
		"StationId" : 41,
		"Title" : "Place St Projet",
		"PubDate" : "2015-06-07T12:34:03",
		"Address" : "9 rue des Trois Conils",
		"City" : "BORDEAUX",
		"Guid" : "100",
		"Point" : "44.8389 -0.57466",
		"Latitude" : 44.8389,
		"Longitude" : -0.57466,
		"AvailableSlots" : 17,
		"AvailableVehicules" : 0,
		"TotalSlots" : 18,
		"StationType" : "VLS",
		"Correspondance" : "Citeis 47",
		"HasPaymentTerminal" : false,
		"IsStationOnline" : false
	}, {
		"StationId" : 3,
		"Title" : "Place Tartas",
		"PubDate" : "2015-06-07T12:34:03",
		"Address" : "167 rue Judaique",
		"City" : "BORDEAUX",
		"Guid" : "41",
		"Point" : "44.8409 -0.59104",
		"Latitude" : 44.8409,
		"Longitude" : -0.59104,
		"AvailableSlots" : 17,
		"AvailableVehicules" : 1,
		"TotalSlots" : 18,
		"StationType" : "VLS",
		"Correspondance" : "Lianes 1/Lianes 16",
		"HasPaymentTerminal" : false,
		"IsStationOnline" : false
	}, {
		"StationId" : 19,
		"Title" : "Place Tourny",
		"PubDate" : "2015-06-07T12:34:03",
		"Address" : "58 allees de Tourny",
		"City" : "BORDEAUX",
		"Guid" : "51",
		"Point" : "44.8447 -0.57745",
		"Latitude" : 44.8447,
		"Longitude" : -0.57745,
		"AvailableSlots" : 9,
		"AvailableVehicules" : 11,
		"TotalSlots" : 20,
		"StationType" : "VLS",
		"Correspondance" : "56 exp/Lianes 15/Lianes 4/Lianes 5/Lianes 6/83/Lianes 1/Lianes 2/Lianes 3/Citeis 47",
		"HasPaymentTerminal" : false,
		"IsStationOnline" : false
	}, {
		"StationId" : 76,
		"Title" : "Pont de la Maye",
		"PubDate" : "2015-06-07T12:34:03",
		"Address" : "face au 564 route de Toulouse",
		"City" : "VILLENAVE-D'ORNON",
		"Guid" : "9",
		"Point" : "44.7822 -0.56616",
		"Latitude" : 44.7822,
		"Longitude" : -0.56616,
		"AvailableSlots" : 1,
		"AvailableVehicules" : 20,
		"TotalSlots" : 21,
		"StationType" : "VLS+",
		"Correspondance" : "89/Lianes 15/Lianes 5",
		"HasPaymentTerminal" : false,
		"IsStationOnline" : false
	}, {
		"StationId" : 123,
		"Title" : "Porte de Bourgogne",
		"PubDate" : "2015-06-07T12:34:03",
		"Address" : "face au 42 quai Richelieu",
		"City" : "BORDEAUX",
		"Guid" : "124",
		"Point" : "44.8378 -0.56716",
		"Latitude" : 44.8378,
		"Longitude" : -0.56716,
		"AvailableSlots" : 18,
		"AvailableVehicules" : 18,
		"TotalSlots" : 36,
		"StationType" : "VLS",
		"Correspondance" : "A/C/24/Citeis 45",
		"HasPaymentTerminal" : false,
		"IsStationOnline" : false
	}, {
		"StationId" : 21,
		"Title" : "Puy Paulin",
		"PubDate" : "2015-06-07T12:34:03",
		"Address" : "1 place Puy Paulin",
		"City" : "BORDEAUX",
		"Guid" : "91",
		"Point" : "44.8412 -0.5756",
		"Latitude" : 44.8412,
		"Longitude" : -0.5756,
		"AvailableSlots" : 12,
		"AvailableVehicules" : 3,
		"TotalSlots" : 15,
		"StationType" : "VLS",
		"Correspondance" : "B/Citeis 47",
		"HasPaymentTerminal" : false,
		"IsStationOnline" : false
	}, {
		"StationId" : 126,
		"Title" : "Quai de Paludate",
		"PubDate" : "2015-06-07T12:34:03",
		"Address" : "82 quai Paludate",
		"City" : "BORDEAUX",
		"Guid" : "127",
		"Point" : "44.8267 -0.54983",
		"Latitude" : 44.8267,
		"Longitude" : -0.54983,
		"AvailableSlots" : 11,
		"AvailableVehicules" : 1,
		"TotalSlots" : 12,
		"StationType" : "VLS",
		"Correspondance" : "Lianes 11/58",
		"HasPaymentTerminal" : false,
		"IsStationOnline" : false
	}, {
		"StationId" : 39,
		"Title" : "Quinconces",
		"PubDate" : "2015-06-07T12:34:03",
		"Address" : "face au 9 cours du 30 Juillet",
		"City" : "BORDEAUX",
		"Guid" : "61",
		"Point" : "44.8442 -0.57434",
		"Latitude" : 44.8442,
		"Longitude" : -0.57434,
		"AvailableSlots" : 30,
		"AvailableVehicules" : 9,
		"TotalSlots" : 40,
		"StationType" : "VLS",
		"Correspondance" : "B/C/26/29/83/Citeis 47/Lianes 1/Lianes 2/Lianes 3",
		"HasPaymentTerminal" : false,
		"IsStationOnline" : false
	}, {
		"StationId" : 23,
		"Title" : "Republique",
		"PubDate" : "2015-06-07T12:34:03",
		"Address" : "place de la Republique",
		"City" : "BORDEAUX",
		"Guid" : "93",
		"Point" : "44.8348 -0.58019",
		"Latitude" : 44.8348,
		"Longitude" : -0.58019,
		"AvailableSlots" : 19,
		"AvailableVehicules" : 0,
		"TotalSlots" : 20,
		"StationType" : "VLS",
		"Correspondance" : "24/Lianes 15/Lianes 16/Lianes 4/Lianes 5/Citeis 45/701/702",
		"HasPaymentTerminal" : false,
		"IsStationOnline" : false
	}, {
		"StationId" : 152,
		"Title" : "Robert Picque",
		"PubDate" : "2015-06-07T12:34:03",
		"Address" : "349-351 Route de Toulouse",
		"City" : "VILLENAVE-D'ORNON",
		"Guid" : "149",
		"Point" : "44.7997 -0.569953",
		"Latitude" : 44.7997,
		"Longitude" : -0.569953,
		"AvailableSlots" : 11,
		"AvailableVehicules" : 9,
		"TotalSlots" : 20,
		"StationType" : "VLS",
		"Correspondance" : "Lianes 5/Citeis 43",
		"HasPaymentTerminal" : false,
		"IsStationOnline" : false
	}, {
		"StationId" : 15,
		"Title" : "Rue de la Croix Blanche",
		"PubDate" : "2015-06-07T12:34:03",
		"Address" : "71, rue de la Croix Blanche",
		"City" : "BORDEAUX",
		"Guid" : "48",
		"Point" : "44.8452 -0.59206",
		"Latitude" : 44.8452,
		"Longitude" : -0.59206,
		"AvailableSlots" : 13,
		"AvailableVehicules" : 1,
		"TotalSlots" : 14,
		"StationType" : "VLS",
		"Correspondance" : "26/83/Lianes 2/Lianes 3/Specifique 74",
		"HasPaymentTerminal" : false,
		"IsStationOnline" : false
	}, {
		"StationId" : 105,
		"Title" : "Rue du Mirail",
		"PubDate" : "2015-06-07T12:34:03",
		"Address" : "63 rue du Mirail",
		"City" : "BORDEAUX",
		"Guid" : "119",
		"Point" : "44.8326 -0.57097",
		"Latitude" : 44.8326,
		"Longitude" : -0.57097,
		"AvailableSlots" : 20,
		"AvailableVehicules" : 0,
		"TotalSlots" : 20,
		"StationType" : "VLS",
		"Correspondance" : "Citeis 47",
		"HasPaymentTerminal" : false,
		"IsStationOnline" : false
	}, {
		"StationId" : 25,
		"Title" : "Rue F. de Sourdis",
		"PubDate" : "2015-06-07T12:34:03",
		"Address" : "97 rue Francois de Sourdis",
		"City" : "BORDEAUX",
		"Guid" : "95",
		"Point" : "44.831 -0.58734",
		"Latitude" : 44.831,
		"Longitude" : -0.58734,
		"AvailableSlots" : 12,
		"AvailableVehicules" : 2,
		"TotalSlots" : 14,
		"StationType" : "VLS",
		"Correspondance" : "24/26",
		"HasPaymentTerminal" : false,
		"IsStationOnline" : false
	}, {
		"StationId" : 54,
		"Title" : "Rue St Vincent de Paul",
		"PubDate" : "2015-06-07T12:34:03",
		"Address" : "28 rue St Vincent de Paul",
		"City" : "BORDEAUX",
		"Guid" : "108",
		"Point" : "44.8264 -0.55732",
		"Latitude" : 44.8264,
		"Longitude" : -0.55732,
		"AvailableSlots" : 12,
		"AvailableVehicules" : 10,
		"TotalSlots" : 22,
		"StationType" : "VLS",
		"Correspondance" : "TER/C/Lianes 9/Lianes 10/Lianes 11/Lianes 16",
		"HasPaymentTerminal" : false,
		"IsStationOnline" : false
	}, {
		"StationId" : 128,
		"Title" : "Sacre Coeur",
		"PubDate" : "2015-06-07T12:34:03",
		"Address" : "place du Cardinal Donnet, face au 112 rue Pelleport",
		"City" : "BORDEAUX",
		"Guid" : "127",
		"Point" : "44.8222 -0.56308",
		"Latitude" : 44.8222,
		"Longitude" : -0.56308,
		"AvailableSlots" : 5,
		"AvailableVehicules" : 11,
		"TotalSlots" : 16,
		"StationType" : "VLS",
		"Correspondance" : "Lianes 9",
		"HasPaymentTerminal" : false,
		"IsStationOnline" : false
	}, {
		"StationId" : 120,
		"Title" : "Saint Louis Haussmann",
		"PubDate" : "2015-06-07T12:34:03",
		"Address" : "face au 196 cours St Louis",
		"City" : "BORDEAUX",
		"Guid" : "80",
		"Point" : "44.8626 -0.56718",
		"Latitude" : 44.8626,
		"Longitude" : -0.56718,
		"AvailableSlots" : 18,
		"AvailableVehicules" : 0,
		"TotalSlots" : 18,
		"StationType" : "VLS",
		"Correspondance" : "Lianes 4/Corol 32",
		"HasPaymentTerminal" : false,
		"IsStationOnline" : false
	}, {
		"StationId" : 6,
		"Title" : "Square A. Lhote",
		"PubDate" : "2015-06-07T12:34:03",
		"Address" : "cours d'Albret, square Andre Lhote",
		"City" : "BORDEAUX",
		"Guid" : "85",
		"Point" : "44.8378 -0.58166",
		"Latitude" : 44.8378,
		"Longitude" : -0.58166,
		"AvailableSlots" : 17,
		"AvailableVehicules" : 3,
		"TotalSlots" : 20,
		"StationType" : "VLS",
		"Correspondance" : "Lianes 15/Lianes 16/Lianes 4/Lianes 5/Lianes 6",
		"HasPaymentTerminal" : false,
		"IsStationOnline" : false
	}, {
		"StationId" : 29,
		"Title" : "St Augustin",
		"PubDate" : "2015-06-07T12:34:03",
		"Address" : "Place de l'Eglise St Augustin",
		"City" : "BORDEAUX",
		"Guid" : "99",
		"Point" : "44.8325 -0.61047",
		"Latitude" : 44.8325,
		"Longitude" : -0.61047,
		"AvailableSlots" : 4,
		"AvailableVehicules" : 16,
		"TotalSlots" : 20,
		"StationType" : "VLS",
		"Correspondance" : "Citeis 42/Lianes 11/Citeis 41",
		"HasPaymentTerminal" : false,
		"IsStationOnline" : false
	}, {
		"StationId" : 2,
		"Title" : "St Bruno",
		"PubDate" : "2015-06-07T12:34:03",
		"Address" : "rue Francois de Sourdis, face au cimetiere de la Chartreuse",
		"City" : "BORDEAUX",
		"Guid" : "84",
		"Point" : "44.8378 -0.59028",
		"Latitude" : 44.8378,
		"Longitude" : -0.59028,
		"AvailableSlots" : 15,
		"AvailableVehicules" : 5,
		"TotalSlots" : 20,
		"StationType" : "VLS",
		"Correspondance" : "A/26/Lianes 1",
		"HasPaymentTerminal" : false,
		"IsStationOnline" : false
	}, {
		"StationId" : 92,
		"Title" : "St Medard Republique",
		"PubDate" : "2015-06-07T12:34:03",
		"Address" : "5 avenue Montesquieu",
		"City" : "SAINT-MEDARD-EN-JALLES",
		"Guid" : "35",
		"Point" : "44.8953 -0.71467",
		"Latitude" : 44.8953,
		"Longitude" : -0.71467,
		"AvailableSlots" : 6,
		"AvailableVehicules" : 10,
		"TotalSlots" : 16,
		"StationType" : "VLS+",
		"Correspondance" : "30/71/83/Lianes 3/Corol 37/Flexo 55",
		"HasPaymentTerminal" : false,
		"IsStationOnline" : false
	}, {
		"StationId" : 107,
		"Title" : "St Nicolas",
		"PubDate" : "2015-06-07T12:34:03",
		"Address" : "face au 20 rue Brian",
		"City" : "BORDEAUX",
		"Guid" : "121",
		"Point" : "44.8275 -0.57589",
		"Latitude" : 44.8275,
		"Longitude" : -0.57589,
		"AvailableSlots" : 15,
		"AvailableVehicules" : 0,
		"TotalSlots" : 15,
		"StationType" : "VLS",
		"Correspondance" : "B",
		"HasPaymentTerminal" : false,
		"IsStationOnline" : false
	}, {
		"StationId" : 43,
		"Title" : "St Paul",
		"PubDate" : "2015-06-07T12:34:03",
		"Address" : "9 rue Ravez",
		"City" : "BORDEAUX",
		"Guid" : "102",
		"Point" : "44.8371 -0.57279",
		"Latitude" : 44.8371,
		"Longitude" : -0.57279,
		"AvailableSlots" : 17,
		"AvailableVehicules" : 1,
		"TotalSlots" : 18,
		"StationType" : "VLS",
		"Correspondance" : "A/Citeis 47",
		"HasPaymentTerminal" : false,
		"IsStationOnline" : false
	}, {
		"StationId" : 4,
		"Title" : "St Seurin",
		"PubDate" : "2015-06-07T12:34:03",
		"Address" : "place Vercingetorix, face au 37 place des martyrs de la resistance",
		"City" : "BORDEAUX",
		"Guid" : "42",
		"Point" : "44.8422 -0.58482",
		"Latitude" : 44.8422,
		"Longitude" : -0.58482,
		"AvailableSlots" : 20,
		"AvailableVehicules" : 0,
		"TotalSlots" : 20,
		"StationType" : "VLS",
		"Correspondance" : "83/Lianes 1/Lianes 2/Lianes 3/Lianes 16",
		"HasPaymentTerminal" : false,
		"IsStationOnline" : false
	}, {
		"StationId" : 10,
		"Title" : "Stade Chaban Delmas",
		"PubDate" : "2015-06-07T12:34:03",
		"Address" : "115 boulevard Antoine Gautier",
		"City" : "BORDEAUX",
		"Guid" : "89",
		"Point" : "44.8318 -0.59868",
		"Latitude" : 44.8318,
		"Longitude" : -0.59868,
		"AvailableSlots" : 6,
		"AvailableVehicules" : 15,
		"TotalSlots" : 22,
		"StationType" : "VLS",
		"Correspondance" : "A/Lianes 9",
		"HasPaymentTerminal" : false,
		"IsStationOnline" : false
	}, {
		"StationId" : 65,
		"Title" : "Stalingrad",
		"PubDate" : "2015-06-07T12:34:03",
		"Address" : "7, 9 place Stalingrad",
		"City" : "BORDEAUX",
		"Guid" : "111",
		"Point" : "44.8403 -0.55955",
		"Latitude" : 44.8403,
		"Longitude" : -0.55955,
		"AvailableSlots" : 35,
		"AvailableVehicules" : 6,
		"TotalSlots" : 41,
		"StationType" : "VLS",
		"Correspondance" : "A/27/28/62/91/92//Flexo 38/Flexo 50/Resago Bouliac/403/404/405/501",
		"HasPaymentTerminal" : false,
		"IsStationOnline" : false
	}, {
		"StationId" : 73,
		"Title" : "Terres Neuves",
		"PubDate" : "2015-06-07T12:34:03",
		"Address" : "face au 307 boulevard J.J. Bosc",
		"City" : "BEGLES",
		"Guid" : "6",
		"Point" : "44.8153 -0.55115",
		"Latitude" : 44.8153,
		"Longitude" : -0.55115,
		"AvailableSlots" : 5,
		"AvailableVehicules" : 15,
		"TotalSlots" : 21,
		"StationType" : "VLS+",
		"Correspondance" : "C/26/Lianes 11/Corol 36",
		"HasPaymentTerminal" : false,
		"IsStationOnline" : false
	}, {
		"StationId" : 68,
		"Title" : "Thiers Jardin Botanique",
		"PubDate" : "2015-06-07T12:34:03",
		"Address" : "73 avenue Thiers",
		"City" : "BORDEAUX",
		"Guid" : "114",
		"Point" : "44.843 -0.55573",
		"Latitude" : 44.843,
		"Longitude" : -0.55573,
		"AvailableSlots" : 4,
		"AvailableVehicules" : 14,
		"TotalSlots" : 18,
		"StationType" : "VLS",
		"Correspondance" : "A/Citeis 45",
		"HasPaymentTerminal" : false,
		"IsStationOnline" : false
	}, {
		"StationId" : 154,
		"Title" : "Thouars",
		"PubDate" : "2015-06-07T12:34:03",
		"Address" : "221 Avenue de Thouars",
		"City" : "TALENCE",
		"Guid" : "153",
		"Point" : "44.7921 -0.591518",
		"Latitude" : 44.7921,
		"Longitude" : -0.591518,
		"AvailableSlots" : 0,
		"AvailableVehicules" : 20,
		"TotalSlots" : 20,
		"StationType" : "VLS+",
		"Correspondance" : "Lianes 8",
		"HasPaymentTerminal" : false,
		"IsStationOnline" : false
	}, {
		"StationId" : 34,
		"Title" : "Tivoli",
		"PubDate" : "2015-06-07T12:34:03",
		"Address" : "face au 10 rue de Tivoli",
		"City" : "BORDEAUX",
		"Guid" : "56",
		"Point" : "44.8538 -0.58864",
		"Latitude" : 44.8538,
		"Longitude" : -0.58864,
		"AvailableSlots" : 13,
		"AvailableVehicules" : 1,
		"TotalSlots" : 14,
		"StationType" : "VLS",
		"Correspondance" : "72/29",
		"HasPaymentTerminal" : false,
		"IsStationOnline" : false
	}, {
		"StationId" : 119,
		"Title" : "Tram station Grd Parc",
		"PubDate" : "2015-06-07T12:34:03",
		"Address" : "angle av Emile Counord / rue F. Leveque",
		"City" : "BORDEAUX",
		"Guid" : "79",
		"Point" : "44.8626 -0.57576",
		"Latitude" : 44.8626,
		"Longitude" : -0.57576,
		"AvailableSlots" : 17,
		"AvailableVehicules" : 3,
		"TotalSlots" : 20,
		"StationType" : "VLS",
		"Correspondance" : "C",
		"HasPaymentTerminal" : false,
		"IsStationOnline" : false
	}, {
		"StationId" : 155,
		"Title" : "Village 6 IUT",
		"PubDate" : "2015-06-07T12:34:03",
		"Address" : "Face au 10 rue Naudet",
		"City" : "GRADIGNAN",
		"Guid" : "156",
		"Point" : "44.7915 -0.613107",
		"Latitude" : 44.7915,
		"Longitude" : -0.613107,
		"AvailableSlots" : 17,
		"AvailableVehicules" : 7,
		"TotalSlots" : 24,
		"StationType" : "VLS+",
		"Correspondance" : "58/Lianes 10",
		"HasPaymentTerminal" : false,
		"IsStationOnline" : false
	}, {
		"StationId" : 26,
		"Title" : "Xaintrailles",
		"PubDate" : "2015-06-07T12:34:03",
		"Address" : "247 boulevard Marechal Leclerc",
		"City" : "BORDEAUX",
		"Guid" : "96",
		"Point" : "44.828 -0.59349",
		"Latitude" : 44.828,
		"Longitude" : -0.59349,
		"AvailableSlots" : 14,
		"AvailableVehicules" : 2,
		"TotalSlots" : 16,
		"StationType" : "VLS",
		"Correspondance" : "24/Lianes 9",
		"HasPaymentTerminal" : false,
		"IsStationOnline" : false
	}
]